{
"type": "FeatureCollection",
"features": [
{ "type": "Feature", "properties": { "num": 0, "name": "자연과함께 펜션캠핑장", "addr": "강원 영월군 무릉도원면 무릉법흥로 968-31", "call_num": "010-5015-1366", "coord_x": 128.2802974, "coord_y": 37.3447591, "hashtag": "자연과함께펜션캠핑장" }, "geometry": { "type": "Point", "coordinates": [ 128.280297400000023, 37.3447591 ] } },
{ "type": "Feature", "properties": { "num": 1, "name": "파라다이스캠프", "addr": "강원 영월군 무릉도원면 무릉법흥로 1128-10", "call_num": "010-5554-1008", "coord_x": 128.2786804, "coord_y": 37.3571502, "hashtag": "파라다이스캠프" }, "geometry": { "type": "Point", "coordinates": [ 128.278680400000013, 37.3571502 ] } },
{ "type": "Feature", "properties": { "num": 2, "name": "연포분교야영장", "addr": "강원 정선군 신동읍 연포길 544-6", "call_num": null, "coord_x": 128.5718856, "coord_y": 37.2512651, "hashtag": "연포분교야영장" }, "geometry": { "type": "Point", "coordinates": [ 128.5718856, 37.2512651 ] } },
{ "type": "Feature", "properties": { "num": 3, "name": "두리캠핑장", "addr": "인천 계양구 장제로 1145 (귤현동)", "call_num": "010-3824-0426", "coord_x": 126.7630615, "coord_y": 37.5705242, "hashtag": "두리캠핑장" }, "geometry": { "type": "Point", "coordinates": [ 126.7630615, 37.5705242 ] } },
{ "type": "Feature", "properties": { "num": 4, "name": "강원도양양캠핑장 포레스트", "addr": "강원 양양군 현북면 검소길 117", "call_num": "010-2000-4949", "coord_x": 128.6916045, "coord_y": 38.0077282, "hashtag": "강원도양양캠핑장포레스트" }, "geometry": { "type": "Point", "coordinates": [ 128.691604499999983, 38.0077282 ] } },
{ "type": "Feature", "properties": { "num": 5, "name": "원주키즈캠핑장", "addr": "강원도 원주시 신림면 솔치로 88 ", "call_num": null, "coord_x": 128.2027943, "coord_y": 37.2640568, "hashtag": "원주키즈캠핑장" }, "geometry": { "type": "Point", "coordinates": [ 128.2027943, 37.2640568 ] } },
{ "type": "Feature", "properties": { "num": 6, "name": "팔봉산관광지 야영장", "addr": "강원도 홍천군 서면 한치골길 1122-48 ", "call_num": "033-430-4281", "coord_x": 127.6953124, "coord_y": 37.7018759, "hashtag": "팔봉산관광지야영장" }, "geometry": { "type": "Point", "coordinates": [ 127.6953124, 37.7018759 ] } },
{ "type": "Feature", "properties": { "num": 7, "name": "성동 서울숲 여름캠핑장(임시캠핑장)", "addr": "서울 성동구 뚝섬로 273 (성수동1가)", "call_num": "02-2286-5663", "coord_x": 127.0417991, "coord_y": 37.5430701, "hashtag": "성동서울숲여름캠핑장" }, "geometry": { "type": "Point", "coordinates": [ 127.0417991, 37.5430701 ] } },
{ "type": "Feature", "properties": { "num": 8, "name": "덕산해변 캠핑장", "addr": "강원 삼척시 근덕면 덕산해변길 82", "call_num": "010-3996-2554", "coord_x": 129.239611, "coord_y": 37.3857373, "hashtag": "덕산해변캠핑장" }, "geometry": { "type": "Point", "coordinates": [ 129.239611, 37.3857373 ] } },
{ "type": "Feature", "properties": { "num": 9, "name": "영월지구별캠프", "addr": "강원 영월군 무릉도원면 무릉법흥로 1104", "call_num": "010-7923-4498", "coord_x": 128.2787562, "coord_y": 37.3552515, "hashtag": "영월지구별캠프" }, "geometry": { "type": "Point", "coordinates": [ 128.2787562, 37.3552515 ] } },
{ "type": "Feature", "properties": { "num": 10, "name": "삼장다목적캠핑장", "addr": "경상남도 산청군 삼장면 친환경로 409-28 ", "call_num": "010-5745-3030", "coord_x": 127.8338141, "coord_y": 35.3079167, "hashtag": "삼장다목적캠핑장" }, "geometry": { "type": "Point", "coordinates": [ 127.833814099999984, 35.3079167 ] } },
{ "type": "Feature", "properties": { "num": 11, "name": "남양주 휴림캠핑장", "addr": "경기도 남양주시 지둔로 344-0 ", "call_num": "010-2441-5092", "coord_x": 127.3003375, "coord_y": 37.7143513, "hashtag": "남양주휴림캠핑장" }, "geometry": { "type": "Point", "coordinates": [ 127.3003375, 37.7143513 ] } },
{ "type": "Feature", "properties": { "num": 12, "name": "목사골 야영장", "addr": "전남 곡성군 목사동면 용봉리 425", "call_num": "061-362-8466", "coord_x": 127.3125246, "coord_y": 35.1059221, "hashtag": "목사골야영장" }, "geometry": { "type": "Point", "coordinates": [ 127.3125246, 35.1059221 ] } },
{ "type": "Feature", "properties": { "num": 13, "name": "형원레져", "addr": "전남 강진군 도암면 월곶로 426", "call_num": "061-432-2782", "coord_x": 126.7666339, "coord_y": 34.5271203, "hashtag": "형원레져" }, "geometry": { "type": "Point", "coordinates": [ 126.766633900000016, 34.5271203 ] } },
{ "type": "Feature", "properties": { "num": 14, "name": "삼화리 동광 캠핑장", "addr": "경기도 연천군 미산면 어삼로 447-30", "call_num": "031-833-1225", "coord_x": 126.9797164, "coord_y": 38.0221917, "hashtag": "삼화리동광캠핑장" }, "geometry": { "type": "Point", "coordinates": [ 126.979716400000015, 38.0221917 ] } },
{ "type": "Feature", "properties": { "num": 15, "name": "태학산 자연휴양림 오토캠핑장", "addr": "충남 천안시 동남구 풍세면 돈마루1길 188", "call_num": "041-529-5108", "coord_x": 127.0938829, "coord_y": 36.7315951, "hashtag": "태학산자연휴양림오토캠핑장" }, "geometry": { "type": "Point", "coordinates": [ 127.093882900000011, 36.7315951 ] } },
{ "type": "Feature", "properties": { "num": 16, "name": "트리캠핑장", "addr": "인천광역시 옹진군 선재로306번길 27-55 ", "call_num": null, "coord_x": 126.5149936, "coord_y": 37.2568236, "hashtag": "트리캠핑장" }, "geometry": { "type": "Point", "coordinates": [ 126.5149936, 37.2568236 ] } },
{ "type": "Feature", "properties": { "num": 17, "name": "마노아워터캠핑장", "addr": "경남 합천군 봉산면 압곡3길 9", "call_num": "010-8667-6051", "coord_x": 128.0578454, "coord_y": 35.6424478, "hashtag": "마노아워터캠핑장" }, "geometry": { "type": "Point", "coordinates": [ 128.057845400000019, 35.6424478 ] } },
{ "type": "Feature", "properties": { "num": 18, "name": "서천 금빛노을 서울캠핑장", "addr": "충청남도 서천군 장선리 128-3", "call_num": null, "coord_x": 126.7189118, "coord_y": 36.0455656, "hashtag": "서천금빛노을서울캠핑장" }, "geometry": { "type": "Point", "coordinates": [ 126.7189118, 36.0455656 ] } },
{ "type": "Feature", "properties": { "num": 19, "name": "수동시온캠프", "addr": "경기 남양주시 수동면 지둔로445번길 82", "call_num": "010-5230-6729", "coord_x": 127.2983908, "coord_y": 37.7271525, "hashtag": "수동시온캠프" }, "geometry": { "type": "Point", "coordinates": [ 127.2983908, 37.7271525 ] } },
{ "type": "Feature", "properties": { "num": 20, "name": "아트앤오토캠핑장", "addr": "울산광역시 울주군 상북면 이천리 ", "call_num": "010-3710-2060", "coord_x": 129.0097777, "coord_y": 35.5307228, "hashtag": "아트앤오토캠핑장" }, "geometry": { "type": "Point", "coordinates": [ 129.0097777, 35.5307228 ] } },
{ "type": "Feature", "properties": { "num": 21, "name": "힐링스토리", "addr": "강원 횡성군 서원면 금대1길 24-68", "call_num": "010-5227-3579", "coord_x": 127.9059162, "coord_y": 37.5142324, "hashtag": "힐링스토리" }, "geometry": { "type": "Point", "coordinates": [ 127.9059162, 37.5142324 ] } },
{ "type": "Feature", "properties": { "num": 22, "name": "밀양댐오토캠핑장", "addr": "경상남도 밀양시 단장면 고례리 ", "call_num": "010-5199-1426", "coord_x": 128.9284847, "coord_y": 35.4934197, "hashtag": "밀양댐오토캠핑장" }, "geometry": { "type": "Point", "coordinates": [ 128.928484700000013, 35.4934197 ] } },
{ "type": "Feature", "properties": { "num": 23, "name": "별볼일 있는 야영장", "addr": "전라남도 보성군 문덕면 양동리 942", "call_num": null, "coord_x": 127.1902953, "coord_y": 34.9175159, "hashtag": "별볼일있는야영장" }, "geometry": { "type": "Point", "coordinates": [ 127.1902953, 34.9175159 ] } },
{ "type": "Feature", "properties": { "num": 24, "name": "별마로빌리지캠핑장", "addr": "강원 영월군 김삿갓면 영월동로 1954-40", "call_num": "010-3008-6408", "coord_x": 128.585354, "coord_y": 37.1257108, "hashtag": "별마로빌리지캠핑장" }, "geometry": { "type": "Point", "coordinates": [ 128.585354, 37.1257108 ] } },
{ "type": "Feature", "properties": { "num": 25, "name": "물소리풍경 캠핑장", "addr": "충청북도 괴산군 칠성면 쌍곡리 ", "call_num": "010-6540-7000", "coord_x": 127.8961331, "coord_y": 36.7576735, "hashtag": "물소리풍경캠핑장" }, "geometry": { "type": "Point", "coordinates": [ 127.8961331, 36.7576735 ] } },
{ "type": "Feature", "properties": { "num": 26, "name": "문복산 캠핑장", "addr": "경상북도 경주시 산내면 대현리 ", "call_num": "010-6500-7043", "coord_x": 129.05157, "coord_y": 35.6606015, "hashtag": "문복산캠핑장" }, "geometry": { "type": "Point", "coordinates": [ 129.05157, 35.6606015 ] } },
{ "type": "Feature", "properties": { "num": 27, "name": "법흥 캠핑장", "addr": "강원 영월군 무릉도원면 백년계곡길 14-3", "call_num": "010-8753-9155", "coord_x": 128.2737967, "coord_y": 37.3661261, "hashtag": "법흥캠핑장" }, "geometry": { "type": "Point", "coordinates": [ 128.2737967, 37.3661261 ] } },
{ "type": "Feature", "properties": { "num": 28, "name": "산촌오토캠핑장", "addr": "경기도 동두천시 탑동동 탑신로237번길 111 ", "call_num": "010-3660-5795", "coord_x": 127.1207106, "coord_y": 37.900933, "hashtag": "산촌오토캠핑장" }, "geometry": { "type": "Point", "coordinates": [ 127.1207106, 37.900933 ] } },
{ "type": "Feature", "properties": { "num": 29, "name": "무릉도원 오토캠핑장", "addr": "경상남도 양산시 원동면 영포리 ", "call_num": "010-7166-4698", "coord_x": 128.9335584, "coord_y": 35.4260851, "hashtag": "무릉도원오토캠핑장" }, "geometry": { "type": "Point", "coordinates": [ 128.93355840000001, 35.4260851 ] } },
{ "type": "Feature", "properties": { "num": 30, "name": "반디하우스캠핑장", "addr": "강원도 인제군 상남면 내린천로 2355 ", "call_num": "010-4706-2236", "coord_x": 128.2714774, "coord_y": 37.8763863, "hashtag": "반디하우스캠핑장" }, "geometry": { "type": "Point", "coordinates": [ 128.2714774, 37.8763863 ] } },
{ "type": "Feature", "properties": { "num": 31, "name": "산아래 캠핑장", "addr": "경상북도 영주시 부석면 영부로890번길 132 ", "call_num": "010-8408-7880", "coord_x": 128.6762554, "coord_y": 37.035477, "hashtag": "산아래캠핑장" }, "geometry": { "type": "Point", "coordinates": [ 128.6762554, 37.035477 ] } },
{ "type": "Feature", "properties": { "num": 32, "name": "장좌리캠핑장", "addr": "경상남도 고성군 동해면 장좌리 구절로", "call_num": "010-9380-5812", "coord_x": 128.4495543, "coord_y": 35.0096808, "hashtag": "장좌리캠핑장" }, "geometry": { "type": "Point", "coordinates": [ 128.449554300000017, 35.0096808 ] } },
{ "type": "Feature", "properties": { "num": 33, "name": "어울림펜션 캠핑장", "addr": "강원 영월군 한반도면 문둔길 106", "call_num": "010-2693-8456", "coord_x": 128.3731132, "coord_y": 37.1986218, "hashtag": "어울림펜션캠핑장" }, "geometry": { "type": "Point", "coordinates": [ 128.3731132, 37.1986218 ] } },
{ "type": "Feature", "properties": { "num": 34, "name": "작은바람언덕", "addr": "제주특별자치도 서귀포시 남원읍 남원리 ", "call_num": "010-3851-0970", "coord_x": 126.7101985, "coord_y": 33.2764957, "hashtag": "작은바람언덕" }, "geometry": { "type": "Point", "coordinates": [ 126.7101985, 33.2764957 ] } },
{ "type": "Feature", "properties": { "num": 35, "name": "영학관광농원야영장", "addr": "경남 창원시 마산합포구 진북면 학동로 537-280", "call_num": "010-3072-6572", "coord_x": 128.4337383, "coord_y": 35.154208, "hashtag": "영학관광농원야영장" }, "geometry": { "type": "Point", "coordinates": [ 128.433738299999987, 35.154208 ] } },
{ "type": "Feature", "properties": { "num": 36, "name": "얏호캠핑장", "addr": "인천 광역시 강화군 길상면 동검길 159-27", "call_num": "010-8877-7427", "coord_x": 126.5120391, "coord_y": 37.5877754, "hashtag": "얏호캠핑장" }, "geometry": { "type": "Point", "coordinates": [ 126.512039099999981, 37.5877754 ] } },
{ "type": "Feature", "properties": { "num": 37, "name": "애플 글램핑", "addr": "전라남도 장성군 담장로 1279-0 ", "call_num": "010-8570-9609", "coord_x": 126.8996964, "coord_y": 35.4035954, "hashtag": "애플글램핑" }, "geometry": { "type": "Point", "coordinates": [ 126.89969640000001, 35.4035954 ] } },
{ "type": "Feature", "properties": { "num": 38, "name": "영월별마로펜션캠핑", "addr": "강원 영월군 무릉도원면 무릉법흥로 1078-22", "call_num": "010-5107-3824", "coord_x": 128.2797022, "coord_y": 37.3519894, "hashtag": "영월별마로펜션캠핑" }, "geometry": { "type": "Point", "coordinates": [ 128.2797022, 37.3519894 ] } },
{ "type": "Feature", "properties": { "num": 39, "name": "영월 스타 글램핑", "addr": "강원 영월군 무릉도원면 무릉법흥로 1078-12", "call_num": "010-8418-6718", "coord_x": 128.2793723, "coord_y": 37.3527063, "hashtag": "영월스타글램핑" }, "geometry": { "type": "Point", "coordinates": [ 128.2793723, 37.3527063 ] } },
{ "type": "Feature", "properties": { "num": 40, "name": "영덕 칠보산 오토캠핑장", "addr": "경상북도 영덕군 병곡면 백석리 ", "call_num": "010-8299-3828", "coord_x": 129.3938249, "coord_y": 36.6357124, "hashtag": "영덕칠보산오토캠핑장" }, "geometry": { "type": "Point", "coordinates": [ 129.3938249, 36.6357124 ] } },
{ "type": "Feature", "properties": { "num": 41, "name": "영농조합법인 김포관광", "addr": "경기 김포시 월곶면 용강로 325", "call_num": "010-5757-9220", "coord_x": 126.5587378, "coord_y": 37.7472873, "hashtag": "영농조합법인김포관광" }, "geometry": { "type": "Point", "coordinates": [ 126.5587378, 37.7472873 ] } },
{ "type": "Feature", "properties": { "num": 42, "name": "여차울 캠핑장", "addr": "강원도 홍천군 내면 방내리 ", "call_num": "010-4854-1407", "coord_x": 128.2799685, "coord_y": 37.8605695, "hashtag": "여차울캠핑장" }, "geometry": { "type": "Point", "coordinates": [ 128.2799685, 37.8605695 ] } },
{ "type": "Feature", "properties": { "num": 43, "name": "율곡 캠핑장", "addr": "경기도 파주시 파평면 장승배기로 390-217 ", "call_num": "010-5267-8229", "coord_x": 126.8290065, "coord_y": 37.8916298, "hashtag": "율곡캠핑장" }, "geometry": { "type": "Point", "coordinates": [ 126.8290065, 37.8916298 ] } },
{ "type": "Feature", "properties": { "num": 44, "name": "전주 도란도란카라반", "addr": "전라북도 전주시 완산구 간납로 13 ", "call_num": "010-2525-1099", "coord_x": 127.1560055, "coord_y": 35.8169846, "hashtag": "전주도란도란카라반" }, "geometry": { "type": "Point", "coordinates": [ 127.1560055, 35.8169846 ] } },
{ "type": "Feature", "properties": { "num": 45, "name": "툇골 캠핑장", "addr": "강원도 춘천시 툇골길 413-52 ", "call_num": "010-4925-3200", "coord_x": 127.6578864, "coord_y": 37.9353909, "hashtag": "툇골캠핑장" }, "geometry": { "type": "Point", "coordinates": [ 127.65788640000001, 37.9353909 ] } },
{ "type": "Feature", "properties": { "num": 46, "name": "캐나디언 카누클럽 야영장", "addr": "강원도 홍천군 서면 마곡리 ", "call_num": "010-3969-9000", "coord_x": 127.5870896, "coord_y": 37.7223944, "hashtag": "캐나디언카누클럽야영장" }, "geometry": { "type": "Point", "coordinates": [ 127.5870896, 37.7223944 ] } },
{ "type": "Feature", "properties": { "num": 47, "name": "청산 캠프", "addr": "강원 영월군 무릉도원면 무릉법흥로 782-10", "call_num": "010-8878-9180", "coord_x": 128.2747312, "coord_y": 37.3308928, "hashtag": "청산캠프" }, "geometry": { "type": "Point", "coordinates": [ 128.2747312, 37.3308928 ] } },
{ "type": "Feature", "properties": { "num": 48, "name": "청도프로방스불빛축제카라반펜션", "addr": "경상북도 청도군 이슬미로 278 ", "call_num": "010-3254-7734", "coord_x": 128.7064353, "coord_y": 35.6798432, "hashtag": "청도프로방스불빛축제카라반펜션" }, "geometry": { "type": "Point", "coordinates": [ 128.706435299999981, 35.6798432 ] } },
{ "type": "Feature", "properties": { "num": 49, "name": "카누글램핑펜션", "addr": "강원도 화천군 사내면 삼일리 ", "call_num": "010-4800-8349", "coord_x": 127.5110893, "coord_y": 38.0590064, "hashtag": "카누글램핑펜션" }, "geometry": { "type": "Point", "coordinates": [ 127.5110893, 38.0590064 ] } },
{ "type": "Feature", "properties": { "num": 50, "name": "태양과 바다 캠핑장", "addr": "강원도 양양군 현남면 북분리 ", "call_num": "010-7572-7482", "coord_x": 128.738437, "coord_y": 37.9812129, "hashtag": "태양과바다캠핑장" }, "geometry": { "type": "Point", "coordinates": [ 128.738437, 37.9812129 ] } },
{ "type": "Feature", "properties": { "num": 51, "name": "치악신림오토캠핑장", "addr": "강원도 원주시 신림면 성남로 194 ", "call_num": "010-2612-1134", "coord_x": 128.0845693, "coord_y": 37.2623535, "hashtag": "치악신림오토캠핑장" }, "geometry": { "type": "Point", "coordinates": [ 128.0845693, 37.2623535 ] } },
{ "type": "Feature", "properties": { "num": 52, "name": "충효테마관광농원야영장", "addr": "경상남도 고성군 대가면 유흥갈천길 240", "call_num": "010-4001-7805", "coord_x": 128.2904588, "coord_y": 35.0255898, "hashtag": "충효테마관광농원야영장" }, "geometry": { "type": "Point", "coordinates": [ 128.29045880000001, 35.0255898 ] } },
{ "type": "Feature", "properties": { "num": 53, "name": "첫물내기캠핑장", "addr": "강원 영월군 무릉도원면 무릉법흥로 524-2", "call_num": "010-4852-0653", "coord_x": 128.2603527, "coord_y": 37.3178616, "hashtag": "첫물내기캠핑장" }, "geometry": { "type": "Point", "coordinates": [ 128.2603527, 37.3178616 ] } },
{ "type": "Feature", "properties": { "num": 54, "name": "클럽레스피아", "addr": "강원도 홍천군 구룡밭길 24-30 ", "call_num": "010-7709-0114", "coord_x": 127.727693, "coord_y": 37.6856375, "hashtag": "클럽레스피아" }, "geometry": { "type": "Point", "coordinates": [ 127.727693, 37.6856375 ] } },
{ "type": "Feature", "properties": { "num": 55, "name": "참숯골 캠핑장", "addr": "충청남도 당진시 고대면 보덕포로 545 ", "call_num": "010-2789-3304", "coord_x": 126.6232276, "coord_y": 36.9514895, "hashtag": "참숯골캠핑장" }, "geometry": { "type": "Point", "coordinates": [ 126.623227599999979, 36.9514895 ] } },
{ "type": "Feature", "properties": { "num": 56, "name": "캠프레이크", "addr": "경기 용인시 기흥구 동탄기흥로785번길 21-5 (고매동)", "call_num": "010-2456-5390", "coord_x": 127.0999378, "coord_y": 37.2276441, "hashtag": "캠프레이크" }, "geometry": { "type": "Point", "coordinates": [ 127.0999378, 37.2276441 ] } },
{ "type": "Feature", "properties": { "num": 57, "name": "청주키즈캠핑장", "addr": "충북 청주시 상당구 낭성면 갈산1길 19", "call_num": "010-3594-4620", "coord_x": 127.5798498, "coord_y": 36.6599077, "hashtag": "청주키즈캠핑장" }, "geometry": { "type": "Point", "coordinates": [ 127.5798498, 36.6599077 ] } },
{ "type": "Feature", "properties": { "num": 58, "name": "티피 캠핑장", "addr": "강원도 고성군 죽왕면 문암진리 ", "call_num": "010-9511-0920", "coord_x": 128.5486623, "coord_y": 38.295909, "hashtag": "티피캠핑장" }, "geometry": { "type": "Point", "coordinates": [ 128.5486623, 38.295909 ] } },
{ "type": "Feature", "properties": { "num": 59, "name": "그날카라반", "addr": "전라북도 무주군 설천면 심곡리 651 ", "call_num": "010-4488-5119", "coord_x": 127.7548605, "coord_y": 35.9112979, "hashtag": "그날카라반" }, "geometry": { "type": "Point", "coordinates": [ 127.7548605, 35.9112979 ] } },
{ "type": "Feature", "properties": { "num": 60, "name": "꿈엔들 캠프장", "addr": "강원 영월군 무릉도원면 무릉법흥로 968-12", "call_num": "010-5574-2500", "coord_x": 128.2806178, "coord_y": 37.3431516, "hashtag": "꿈엔들캠프장" }, "geometry": { "type": "Point", "coordinates": [ 128.280617800000016, 37.3431516 ] } },
{ "type": "Feature", "properties": { "num": 61, "name": "단양 무지개 오토캠핑장", "addr": "충북 단양군 가곡면 가대리 55", "call_num": "010-5588-8114", "coord_x": 128.4121427, "coord_y": 37.044597, "hashtag": "단양무지개오토캠핑장" }, "geometry": { "type": "Point", "coordinates": [ 128.4121427, 37.044597 ] } },
{ "type": "Feature", "properties": { "num": 62, "name": "다람쥐 쉼터", "addr": "전라북도 완주군 운주면 금고당로 1016 ", "call_num": "010-5316-1968", "coord_x": 127.3485769, "coord_y": 36.0296611, "hashtag": "다람쥐쉼터" }, "geometry": { "type": "Point", "coordinates": [ 127.348576900000012, 36.0296611 ] } },
{ "type": "Feature", "properties": { "num": 63, "name": "깊이울달빛캠핑장", "addr": "경기도 포천시 신북면 심곡리 ", "call_num": "010-2436-6512", "coord_x": 127.1690031, "coord_y": 37.9214643, "hashtag": "깊이울달빛캠핑장" }, "geometry": { "type": "Point", "coordinates": [ 127.1690031, 37.9214643 ] } },
{ "type": "Feature", "properties": { "num": 64, "name": "느티나무야영장", "addr": "경상남도 산청군 삼장면 유평리 ", "call_num": "010-4873-7859", "coord_x": 127.781667, "coord_y": 35.3715548, "hashtag": "느티나무야영장" }, "geometry": { "type": "Point", "coordinates": [ 127.781667, 35.3715548 ] } },
{ "type": "Feature", "properties": { "num": 65, "name": "에이제이", "addr": "경기도 남양주시 수동면 내방리 ", "call_num": "031-592-7970", "coord_x": 127.2839791, "coord_y": 37.7647234, "hashtag": "에이제이" }, "geometry": { "type": "Point", "coordinates": [ 127.2839791, 37.7647234 ] } },
{ "type": "Feature", "properties": { "num": 66, "name": "횡성초보캠핑장", "addr": "강원도 횡성군 서원면 압곡리 ", "call_num": "010-5364-3718", "coord_x": 127.8930241, "coord_y": 37.4708557, "hashtag": "횡성초보캠핑장" }, "geometry": { "type": "Point", "coordinates": [ 127.8930241, 37.4708557 ] } },
{ "type": "Feature", "properties": { "num": 67, "name": "황학동캠핑장", "addr": "강원도 원주시 신림면 구학리 ", "call_num": "010-5098-9022", "coord_x": 128.0453687, "coord_y": 37.208693, "hashtag": "황학동캠핑장" }, "geometry": { "type": "Point", "coordinates": [ 128.045368699999983, 37.208693 ] } },
{ "type": "Feature", "properties": { "num": 68, "name": "호연재", "addr": "전라북도 완주군 소양면 대흥리 478", "call_num": "010-5217-8399", "coord_x": 127.2414153, "coord_y": 35.8940913, "hashtag": "호연재" }, "geometry": { "type": "Point", "coordinates": [ 127.2414153, 35.8940913 ] } },
{ "type": "Feature", "properties": { "num": 69, "name": "호식이 캠핑장", "addr": "강원도 영월군 주천면 판운리 ", "call_num": "010-3181-6696", "coord_x": 128.318727, "coord_y": 37.3116113, "hashtag": "호식이캠핑장" }, "geometry": { "type": "Point", "coordinates": [ 128.318727, 37.3116113 ] } },
{ "type": "Feature", "properties": { "num": 70, "name": "한마음오토캠핑장", "addr": "충청남도 태안군 고남면 장곡리 ", "call_num": "010-9556-7500", "coord_x": 126.3608963, "coord_y": 36.4232666, "hashtag": "한마음오토캠핑장" }, "geometry": { "type": "Point", "coordinates": [ 126.3608963, 36.4232666 ] } },
{ "type": "Feature", "properties": { "num": 71, "name": "청보리오토캠핑장", "addr": "경상남도 통영시 욕지면 욕지일주로 896-71 ", "call_num": "010-8075-5005", "coord_x": 128.2308605, "coord_y": 34.6396511, "hashtag": "청보리오토캠핑장" }, "geometry": { "type": "Point", "coordinates": [ 128.2308605, 34.6396511 ] } },
{ "type": "Feature", "properties": { "num": 72, "name": "연지곤지 캠핑장", "addr": "경상북도 청도군 운문면 신원리 301-12 ", "call_num": "010-9565-5421", "coord_x": 128.9994893, "coord_y": 35.6735432, "hashtag": "연지곤지캠핑장" }, "geometry": { "type": "Point", "coordinates": [ 128.9994893, 35.6735432 ] } },
{ "type": "Feature", "properties": { "num": 73, "name": "헤밍웨이 글램핑", "addr": "전라남도 여수시 망양로 301", "call_num": "010-6834-6226", "coord_x": 127.7414757, "coord_y": 34.7781896, "hashtag": "헤밍웨이글램핑" }, "geometry": { "type": "Point", "coordinates": [ 127.7414757, 34.7781896 ] } },
{ "type": "Feature", "properties": { "num": 74, "name": "향림오토캠핑장", "addr": "경상남도 밀양시 산내면 삼양리 ", "call_num": "010-4182-5678", "coord_x": 128.9801761, "coord_y": 35.5797474, "hashtag": "향림오토캠핑장" }, "geometry": { "type": "Point", "coordinates": [ 128.9801761, 35.5797474 ] } },
{ "type": "Feature", "properties": { "num": 75, "name": "하늘바라기 글램핑", "addr": "강원 홍천군 내촌면 아홉사리로 164-22", "call_num": "010-9913-2400", "coord_x": 128.0055464, "coord_y": 37.8039453, "hashtag": "하늘바라기글램핑" }, "geometry": { "type": "Point", "coordinates": [ 128.005546400000014, 37.8039453 ] } },
{ "type": "Feature", "properties": { "num": 76, "name": "해솔길 캠핑장", "addr": "경기도 안산시 단원구 대부북동 연목이길 15 ", "call_num": "010-3305-4077", "coord_x": 126.5604937, "coord_y": 37.2678313, "hashtag": "해솔길캠핑장" }, "geometry": { "type": "Point", "coordinates": [ 126.5604937, 37.2678313 ] } },
{ "type": "Feature", "properties": { "num": 77, "name": "바다물결캠핑장", "addr": "충남 태안군 원북면 학암포길 31", "call_num": "010-5258-5104", "coord_x": 126.2089105, "coord_y": 36.8970836, "hashtag": "바다물결캠핑장" }, "geometry": { "type": "Point", "coordinates": [ 126.2089105, 36.8970836 ] } },
{ "type": "Feature", "properties": { "num": 78, "name": "판운캠핑장", "addr": "강원 영월군 주천면 미다리길 58", "call_num": "010-5123-0156", "coord_x": 128.3265636, "coord_y": 37.2915378, "hashtag": "판운캠핑장" }, "geometry": { "type": "Point", "coordinates": [ 128.326563599999986, 37.2915378 ] } },
{ "type": "Feature", "properties": { "num": 79, "name": "루파니애견캠핑장", "addr": "충북 괴산군 감물면 감물로 362-54", "call_num": "010-2770-5384", "coord_x": 127.8758459, "coord_y": 36.8591986, "hashtag": "루파니애견캠핑장" }, "geometry": { "type": "Point", "coordinates": [ 127.8758459, 36.8591986 ] } },
{ "type": "Feature", "properties": { "num": 80, "name": "라곰 캠핑힐", "addr": "경남 하동군 청암면 사동길 2", "call_num": "010-2687-3886", "coord_x": 127.754772, "coord_y": 35.181077, "hashtag": "라곰캠핑힐" }, "geometry": { "type": "Point", "coordinates": [ 127.754772, 35.181077 ] } },
{ "type": "Feature", "properties": { "num": 81, "name": "노산팔경 캠핑장 관광농원", "addr": "경기 양평군 서종면 노문길 42", "call_num": "010-5556-2654", "coord_x": 127.4272842, "coord_y": 37.6360636, "hashtag": "노산팔경캠핑장관광농원" }, "geometry": { "type": "Point", "coordinates": [ 127.427284199999988, 37.6360636 ] } },
{ "type": "Feature", "properties": { "num": 82, "name": "원스캠핑장", "addr": "인천 강화군 삼산면 삼산남로604번길 37", "call_num": "010-6408-9365", "coord_x": 126.339125, "coord_y": 37.6761396, "hashtag": "원스캠핑장" }, "geometry": { "type": "Point", "coordinates": [ 126.339125, 37.6761396 ] } },
{ "type": "Feature", "properties": { "num": 83, "name": "자연에 머물다", "addr": "강원 춘천시 사북면 화악지암길 186", "call_num": "010-8025-6508", "coord_x": 127.5854661, "coord_y": 37.9720851, "hashtag": "자연에머물다" }, "geometry": { "type": "Point", "coordinates": [ 127.5854661, 37.9720851 ] } },
{ "type": "Feature", "properties": { "num": 84, "name": "영덕 더스트림 카라반야영장", "addr": "경북 영덕군 강구면 영덕대게로 579", "call_num": "010-4830-7410", "coord_x": 129.414607, "coord_y": 36.393568, "hashtag": "영덕더스트림카라반야영장" }, "geometry": { "type": "Point", "coordinates": [ 129.414607, 36.393568 ] } },
{ "type": "Feature", "properties": { "num": 85, "name": "BABO글램핑", "addr": "경남 산청군 생비량면 상능로150번길 178", "call_num": "010-3862-5960", "coord_x": 128.0664068, "coord_y": 35.3843285, "hashtag": "BABO글램핑" }, "geometry": { "type": "Point", "coordinates": [ 128.06640680000001, 35.3843285 ] } },
{ "type": "Feature", "properties": { "num": 86, "name": "둥글이네", "addr": "경기도 고양시 덕양구 북한산로 386-0 ", "call_num": "010-7101-3638", "coord_x": 126.9488461, "coord_y": 37.6623783, "hashtag": "둥글이네" }, "geometry": { "type": "Point", "coordinates": [ 126.948846099999983, 37.6623783 ] } },
{ "type": "Feature", "properties": { "num": 87, "name": "리버 카라반", "addr": "강원도 홍천군 북방면 노일로 144-8 ", "call_num": "010-5656-6966", "coord_x": 127.740972, "coord_y": 37.6746265, "hashtag": "리버카라반" }, "geometry": { "type": "Point", "coordinates": [ 127.740972, 37.6746265 ] } },
{ "type": "Feature", "properties": { "num": 88, "name": "맑은누리 캠핑장", "addr": "충청북도 영동군 상촌면 물한계곡로 1212 ", "call_num": "010-4800-6405", "coord_x": 127.8750978, "coord_y": 36.0623862, "hashtag": "맑은누리캠핑장" }, "geometry": { "type": "Point", "coordinates": [ 127.8750978, 36.0623862 ] } },
{ "type": "Feature", "properties": { "num": 89, "name": "선녀와 나무꾼 캠핑장", "addr": "충북 제천시 청풍면 신리 214-4번지", "call_num": "010-3499-9816", "coord_x": 128.1510108, "coord_y": 37.0049206, "hashtag": "선녀와나무꾼캠핑장" }, "geometry": { "type": "Point", "coordinates": [ 128.1510108, 37.0049206 ] } },
{ "type": "Feature", "properties": { "num": 90, "name": "솔밭체육공원오토캠핑장", "addr": "강원도 횡성군 공근면 도곡리 ", "call_num": "010-8369-4152", "coord_x": 127.9547878, "coord_y": 37.5622773, "hashtag": "솔밭체육공원오토캠핑장" }, "geometry": { "type": "Point", "coordinates": [ 127.9547878, 37.5622773 ] } },
{ "type": "Feature", "properties": { "num": 91, "name": "속리산알프스야영장", "addr": "충청북도 보은군 속리산로 1842-10 체험장 ", "call_num": "010-3709-6708", "coord_x": 127.7789908, "coord_y": 36.574495, "hashtag": "속리산알프스야영장" }, "geometry": { "type": "Point", "coordinates": [ 127.7789908, 36.574495 ] } },
{ "type": "Feature", "properties": { "num": 92, "name": "패밀리야영장", "addr": "전라북도 남원시 지리산로 823-0 ", "call_num": "010-6637-0488", "coord_x": 127.5802572, "coord_y": 35.3759516, "hashtag": "패밀리야영장" }, "geometry": { "type": "Point", "coordinates": [ 127.5802572, 35.3759516 ] } },
{ "type": "Feature", "properties": { "num": 93, "name": "파피루스 캠핑장", "addr": "경기도 포천시 영중면 성동리 75 ", "call_num": "010-3357-4500", "coord_x": 127.2820284, "coord_y": 38.0267957, "hashtag": "파피루스캠핑장" }, "geometry": { "type": "Point", "coordinates": [ 127.2820284, 38.0267957 ] } },
{ "type": "Feature", "properties": { "num": 94, "name": "수희재 캠프", "addr": "강원도 영월군 무릉도원면 법흥리 97-2", "call_num": "010-2722-8040", "coord_x": 128.279203, "coord_y": 37.350745, "hashtag": "수희재캠프" }, "geometry": { "type": "Point", "coordinates": [ 128.279203, 37.350745 ] } },
{ "type": "Feature", "properties": { "num": 95, "name": "수봉야영장", "addr": "강원도 양양군 서면 오색리 3", "call_num": "010-9972-2015", "coord_x": 128.5114209, "coord_y": 38.0781206, "hashtag": "수봉야영장" }, "geometry": { "type": "Point", "coordinates": [ 128.5114209, 38.0781206 ] } },
{ "type": "Feature", "properties": { "num": 96, "name": "스카이글램핑", "addr": "경기도 남양주시 수동면 지둔리 ", "call_num": "010-4037-1999", "coord_x": 127.2967991, "coord_y": 37.7265925, "hashtag": "스카이글램핑" }, "geometry": { "type": "Point", "coordinates": [ 127.296799099999987, 37.7265925 ] } },
{ "type": "Feature", "properties": { "num": 97, "name": "씨앗골캠핑장", "addr": "충청북도 청주시 상당구 낭성면 호정대신로 69-34 ", "call_num": "010-8829-2770", "coord_x": 127.6065734, "coord_y": 36.6294626, "hashtag": "씨앗골캠핑장" }, "geometry": { "type": "Point", "coordinates": [ 127.606573400000016, 36.6294626 ] } },
{ "type": "Feature", "properties": { "num": 98, "name": "써니힐글램핑", "addr": "강원도 횡성군 우천면 하궁리 ", "call_num": "010-8935-6607", "coord_x": 128.1242933, "coord_y": 37.5089708, "hashtag": "써니힐글램핑" }, "geometry": { "type": "Point", "coordinates": [ 128.1242933, 37.5089708 ] } },
{ "type": "Feature", "properties": { "num": 99, "name": "십이선녀탕 통나무집 야영장", "addr": "강원도 인제군 십이선녀탕길 81-0 ", "call_num": "010-7687-5945", "coord_x": 128.3027706, "coord_y": 38.1830678, "hashtag": "십이선녀탕통나무집야영장" }, "geometry": { "type": "Point", "coordinates": [ 128.3027706, 38.1830678 ] } },
{ "type": "Feature", "properties": { "num": 100, "name": "도고온천모두캠핑장", "addr": "충남 아산시 도고면 도고온천로 207-20", "call_num": "010-2857-2040", "coord_x": 126.8800202, "coord_y": 36.76604, "hashtag": "도고온천모두캠핑장" }, "geometry": { "type": "Point", "coordinates": [ 126.8800202, 36.76604 ] } },
{ "type": "Feature", "properties": { "num": 101, "name": "덕풍계곡솔밭야영장", "addr": "강원도 삼척시 가곡면 풍곡리 ", "call_num": "010-3714-8577", "coord_x": 129.180074, "coord_y": 37.1008122, "hashtag": "덕풍계곡솔밭야영장" }, "geometry": { "type": "Point", "coordinates": [ 129.180074, 37.1008122 ] } },
{ "type": "Feature", "properties": { "num": 102, "name": "덕유산 글램핑", "addr": "전라북도 무주군 설천면 삼공리 ", "call_num": "010-4591-6470", "coord_x": 127.77856, "coord_y": 35.9095239, "hashtag": "덕유산글램핑" }, "geometry": { "type": "Point", "coordinates": [ 127.77856, 35.9095239 ] } },
{ "type": "Feature", "properties": { "num": 103, "name": "자연속캠핑장", "addr": "경상남도 밀양시 산내면 용전리 403-1", "call_num": "0507-1409-4571", "coord_x": 128.8624022, "coord_y": 35.551979, "hashtag": "자연속캠핑장" }, "geometry": { "type": "Point", "coordinates": [ 128.86240220000002, 35.551979 ] } },
{ "type": "Feature", "properties": { "num": 104, "name": "청도감꽃 국민여가캠핑장", "addr": "경상북도 청도군 매전면 청매로 825", "call_num": "054-371-8822", "coord_x": 128.8219075, "coord_y": 35.6119455, "hashtag": "청도감꽃국민여가캠핑장" }, "geometry": { "type": "Point", "coordinates": [ 128.8219075, 35.6119455 ] } },
{ "type": "Feature", "properties": { "num": 105, "name": "합천수피아캠핑", "addr": "경상남도 합천군 봉산면 합천호반로 954", "call_num": "010-4629-7769", "coord_x": 128.0558121, "coord_y": 35.5732257, "hashtag": "합천수피아캠핑" }, "geometry": { "type": "Point", "coordinates": [ 128.0558121, 35.5732257 ] } },
{ "type": "Feature", "properties": { "num": 106, "name": "우리들 캠핑장", "addr": "경기도 가평군 북면 화악산로 243", "call_num": "010-2353-2860", "coord_x": 127.5586381, "coord_y": 37.9028584, "hashtag": "우리들캠핑장" }, "geometry": { "type": "Point", "coordinates": [ 127.55863810000001, 37.9028584 ] } },
{ "type": "Feature", "properties": { "num": 107, "name": "라파엘 펜션 글램핑장", "addr": "경남 고성군 회화면 당항만로 945", "call_num": "055-673-8318", "coord_x": 127.786704, "coord_y": 36.815381, "hashtag": "라파엘펜션글램핑장" }, "geometry": { "type": "Point", "coordinates": [ 127.786704, 36.815381 ] } },
{ "type": "Feature", "properties": { "num": 108, "name": "별밤 야영장", "addr": "경기도 안성시 삼죽면 진촌리 ", "call_num": "010-8583-3451", "coord_x": 127.3742318, "coord_y": 37.0484473, "hashtag": "별밤야영장" }, "geometry": { "type": "Point", "coordinates": [ 127.3742318, 37.0484473 ] } },
{ "type": "Feature", "properties": { "num": 109, "name": "예그리나숲", "addr": "강원도 영월군 주천면 중선로 609-4 ", "call_num": "033-374-8255", "coord_x": 128.30755, "coord_y": 37.3438487, "hashtag": "예그리나숲" }, "geometry": { "type": "Point", "coordinates": [ 128.30755, 37.3438487 ] } },
{ "type": "Feature", "properties": { "num": 110, "name": "월선캠핑장", "addr": "충남 아산시 영인면 월선길 20-21", "call_num": "010-9405-7460", "coord_x": 126.9296182, "coord_y": 36.877357, "hashtag": "월선캠핑장" }, "geometry": { "type": "Point", "coordinates": [ 126.9296182, 36.877357 ] } },
{ "type": "Feature", "properties": { "num": 111, "name": "천동계곡 야영장", "addr": "충북 단양군 단양읍 천동4길 10-8", "call_num": "010-2240-2458", "coord_x": 128.4189781, "coord_y": 36.9658204, "hashtag": "천동계곡야영장" }, "geometry": { "type": "Point", "coordinates": [ 128.4189781, 36.9658204 ] } },
{ "type": "Feature", "properties": { "num": 112, "name": "글램퍼스양평", "addr": "경기 양평군 단월면 대부록길 38-3", "call_num": "031-772-7179", "coord_x": 127.682126, "coord_y": 37.5791182, "hashtag": "글램퍼스양평" }, "geometry": { "type": "Point", "coordinates": [ 127.682126, 37.5791182 ] } },
{ "type": "Feature", "properties": { "num": 113, "name": "깊은골캠핑장", "addr": "전라북도 무주군 구천동로 1284-6 ", "call_num": "063-324-3470", "coord_x": 127.7607566, "coord_y": 35.9260337, "hashtag": "깊은골캠핑장" }, "geometry": { "type": "Point", "coordinates": [ 127.7607566, 35.9260337 ] } },
{ "type": "Feature", "properties": { "num": 114, "name": "담터맑은물 오토캠핑장", "addr": "경기 포천시 관인면 담터길 123", "call_num": "033-456-2200", "coord_x": 127.2068434, "coord_y": 38.1481318, "hashtag": "담터맑은물오토캠핑장" }, "geometry": { "type": "Point", "coordinates": [ 127.206843400000011, 38.1481318 ] } },
{ "type": "Feature", "properties": { "num": 115, "name": "횡성산울림오토캠핑장", "addr": "강원 횡성군 청일면 청일로895번길 127", "call_num": "010-9937-0161", "coord_x": 128.2230161, "coord_y": 37.6022615, "hashtag": "횡성산울림오토캠핑장" }, "geometry": { "type": "Point", "coordinates": [ 128.2230161, 37.6022615 ] } },
{ "type": "Feature", "properties": { "num": 116, "name": "하늘빛계곡", "addr": "강원도 양양군 서면 설악로 1760 ", "call_num": "033-672-3980", "coord_x": 128.5356046, "coord_y": 38.0728584, "hashtag": "하늘빛계곡" }, "geometry": { "type": "Point", "coordinates": [ 128.5356046, 38.0728584 ] } },
{ "type": "Feature", "properties": { "num": 117, "name": "부산 송도오토캠핑장", "addr": "부산시 서구 송도해변로 36", "call_num": "051-257-0627", "coord_x": 129.016822, "coord_y": 35.073339, "hashtag": "부산송도오토캠핑장" }, "geometry": { "type": "Point", "coordinates": [ 129.016822, 35.073339 ] } },
{ "type": "Feature", "properties": { "num": 118, "name": "문경 카라반파파", "addr": "경북 문경시 가은읍 왕능강변길 71", "call_num": "1566-3596-", "coord_x": 128.0616385, "coord_y": 36.649174, "hashtag": "문경카라반파파" }, "geometry": { "type": "Point", "coordinates": [ 128.061638500000015, 36.649174 ] } },
{ "type": "Feature", "properties": { "num": 119, "name": "바람이좋은저녁", "addr": "경북 군위군 고로면 화산산성길 65", "call_num": null, "coord_x": 128.7802935, "coord_y": 36.105153, "hashtag": "바람이좋은저녁" }, "geometry": { "type": "Point", "coordinates": [ 128.7802935, 36.105153 ] } },
{ "type": "Feature", "properties": { "num": 120, "name": "문앤스타 캠핑장", "addr": "경기 양평군 용문면 중원산로 478", "call_num": "010-4886-8474", "coord_x": 127.6172013, "coord_y": 37.5426652, "hashtag": "문앤스타캠핑장" }, "geometry": { "type": "Point", "coordinates": [ 127.6172013, 37.5426652 ] } },
{ "type": "Feature", "properties": { "num": 121, "name": "괴산홍삼랜드 가족캠핑장", "addr": "충북 괴산군 청천면 도경로 638", "call_num": "043-834-1032", "coord_x": 127.7996515, "coord_y": 36.7198387, "hashtag": "괴산홍삼랜드가족캠핑장" }, "geometry": { "type": "Point", "coordinates": [ 127.7996515, 36.7198387 ] } },
{ "type": "Feature", "properties": { "num": 122, "name": "얼음골한옥펜션&캠핑장", "addr": "경남 밀양시 산내면 하양지안길 11-19", "call_num": null, "coord_x": 128.952849, "coord_y": 35.5984747, "hashtag": "얼음골한옥펜션앤캠핑장" }, "geometry": { "type": "Point", "coordinates": [ 128.952849, 35.5984747 ] } },
{ "type": "Feature", "properties": { "num": 123, "name": "솔향기 캠핑장", "addr": "강원 영월군 무릉도원면 무릉법흥로 787", "call_num": null, "coord_x": 128.2751142, "coord_y": 37.3322868, "hashtag": "솔향기캠핑장" }, "geometry": { "type": "Point", "coordinates": [ 128.2751142, 37.3322868 ] } },
{ "type": "Feature", "properties": { "num": 124, "name": "산유리캠핑장", "addr": "경기 가평군 가평읍 분자골로 91", "call_num": null, "coord_x": 127.5040835, "coord_y": 37.7584693, "hashtag": "산유리캠핑장" }, "geometry": { "type": "Point", "coordinates": [ 127.5040835, 37.7584693 ] } },
{ "type": "Feature", "properties": { "num": 125, "name": "별빛캠핑장", "addr": "강원도 영월군 양지마을길 38-11 ", "call_num": "010-7341-5858", "coord_x": 128.2030616, "coord_y": 37.3457004, "hashtag": "별빛캠핑장" }, "geometry": { "type": "Point", "coordinates": [ 128.203061599999984, 37.3457004 ] } },
{ "type": "Feature", "properties": { "num": 126, "name": "힐스톤 캠핑장", "addr": "강원도 영월군 주천면 금마리 ", "call_num": "010-8846-6828", "coord_x": 128.2927459, "coord_y": 37.2493721, "hashtag": "힐스톤캠핑장" }, "geometry": { "type": "Point", "coordinates": [ 128.2927459, 37.2493721 ] } },
{ "type": "Feature", "properties": { "num": 127, "name": "산정레이크 RV리조트", "addr": "경기도 포천시 영북면 산정리 ", "call_num": "010-7795-3460", "coord_x": 127.3247329, "coord_y": 38.0767022, "hashtag": "산정레이크RV리조트" }, "geometry": { "type": "Point", "coordinates": [ 127.324732900000015, 38.0767022 ] } },
{ "type": "Feature", "properties": { "num": 128, "name": "봉무공원야영장", "addr": "대구시 동구 팔공로 50길 66", "call_num": "053-662-2624", "coord_x": 128.651488, "coord_y": 35.9192416, "hashtag": "봉무공원야영장" }, "geometry": { "type": "Point", "coordinates": [ 128.651488, 35.9192416 ] } },
{ "type": "Feature", "properties": { "num": 129, "name": "백담고을 캠핑장", "addr": "강원 인제군 북면 백담로 128", "call_num": "033-462-7711", "coord_x": 128.356098, "coord_y": 38.1923008, "hashtag": "백담고을캠핑장" }, "geometry": { "type": "Point", "coordinates": [ 128.356098, 38.1923008 ] } },
{ "type": "Feature", "properties": { "num": 130, "name": "허그안 힐링캠프", "addr": "경상북도 청도군 청도읍 원리 908-2", "call_num": "054-373-1190", "coord_x": 128.7483181, "coord_y": 35.6118418, "hashtag": "허그안힐링캠프" }, "geometry": { "type": "Point", "coordinates": [ 128.748318099999977, 35.6118418 ] } },
{ "type": "Feature", "properties": { "num": 131, "name": "하옥히든밸리", "addr": "경상북도 포항시 북구 죽장면 하옥리 ", "call_num": "010-3534-1316", "coord_x": 129.2391719, "coord_y": 36.2774613, "hashtag": "하옥히든밸리" }, "geometry": { "type": "Point", "coordinates": [ 129.2391719, 36.2774613 ] } },
{ "type": "Feature", "properties": { "num": 132, "name": "진부(오대산)관광농원", "addr": "강원 평창군 진부면 아차골길 34-15", "call_num": "010-6343-6516", "coord_x": 128.5672147, "coord_y": 37.5555278, "hashtag": "진부관광농원" }, "geometry": { "type": "Point", "coordinates": [ 128.567214700000022, 37.5555278 ] } },
{ "type": "Feature", "properties": { "num": 133, "name": "별삼킨별캠핑장", "addr": "경상북도 포항시 북구 죽장면 죽장로2419번길 14-22 ", "call_num": "010-9206-6234", "coord_x": 129.2389006, "coord_y": 36.2785899, "hashtag": "별삼킨별캠핑장" }, "geometry": { "type": "Point", "coordinates": [ 129.2389006, 36.2785899 ] } },
{ "type": "Feature", "properties": { "num": 134, "name": "올챙이캠핑장", "addr": "강원 횡성군 둔내면 경강로궁종1길 121-7", "call_num": "033-344-4411", "coord_x": 128.1442403, "coord_y": 37.5093163, "hashtag": "올챙이캠핑장" }, "geometry": { "type": "Point", "coordinates": [ 128.1442403, 37.5093163 ] } },
{ "type": "Feature", "properties": { "num": 135, "name": "라온캠핑장", "addr": "경기 가평군 청평면 호반로 740", "call_num": null, "coord_x": 127.4657831, "coord_y": 37.7086466, "hashtag": "라온캠핑장" }, "geometry": { "type": "Point", "coordinates": [ 127.4657831, 37.7086466 ] } },
{ "type": "Feature", "properties": { "num": 136, "name": "숲속향기캠핑장", "addr": "경기도 용인시 처인구 양지면 주북리 ", "call_num": "010-2394-4803", "coord_x": 127.2607183, "coord_y": 37.2508044, "hashtag": "숲속향기캠핑장" }, "geometry": { "type": "Point", "coordinates": [ 127.2607183, 37.2508044 ] } },
{ "type": "Feature", "properties": { "num": 137, "name": "와글와글 캠핑스토리 캠프산음", "addr": "경기도 양평군 단월면 석산로 837 ", "call_num": "031-772-4707", "coord_x": 127.6055521, "coord_y": 37.599952, "hashtag": "와글와글캠핑스토리캠프산음" }, "geometry": { "type": "Point", "coordinates": [ 127.6055521, 37.599952 ] } },
{ "type": "Feature", "properties": { "num": 138, "name": "느티나무 캠핑장", "addr": "경기도 가평군 북면 목동리 595-2", "call_num": "010-7331-3782", "coord_x": 127.5748372, "coord_y": 37.9106422, "hashtag": "느티나무캠핑장" }, "geometry": { "type": "Point", "coordinates": [ 127.5748372, 37.9106422 ] } },
{ "type": "Feature", "properties": { "num": 139, "name": "섬바위 오토캠핑장", "addr": "전라북도 진안군 안천면 안용로 832-23 ", "call_num": "063-433-7737", "coord_x": 127.5283557, "coord_y": 35.9530123, "hashtag": "섬바위오토캠핑장" }, "geometry": { "type": "Point", "coordinates": [ 127.5283557, 35.9530123 ] } },
{ "type": "Feature", "properties": { "num": 140, "name": "김포예당캠핑장", "addr": "경기도 김포시 월곶면 문수산로 216", "call_num": "010-5251-8066", "coord_x": 126.5334652, "coord_y": 37.7481594, "hashtag": "김포예당캠핑장" }, "geometry": { "type": "Point", "coordinates": [ 126.5334652, 37.7481594 ] } },
{ "type": "Feature", "properties": { "num": 141, "name": "화진해수욕장카라반", "addr": "경북 포항시 북구 송라면 동해대로3218번길 37", "call_num": null, "coord_x": 129.3731448, "coord_y": 36.2514694, "hashtag": "화진해수욕장카라반" }, "geometry": { "type": "Point", "coordinates": [ 129.373144799999977, 36.2514694 ] } },
{ "type": "Feature", "properties": { "num": 142, "name": "케렌시아캠핑장", "addr": "경기 양주시 화합로 1970 (회암동)", "call_num": null, "coord_x": 127.1134456, "coord_y": 37.8421743, "hashtag": "케렌시아캠핑장" }, "geometry": { "type": "Point", "coordinates": [ 127.1134456, 37.8421743 ] } },
{ "type": "Feature", "properties": { "num": 143, "name": "아산 영인산자연휴양림 숲속야영장", "addr": "충남 아산시 영인면 아산온천로 16-24", "call_num": "041-538-1958", "coord_x": 126.9500195, "coord_y": 36.8405946, "hashtag": "아산영인산자연휴양림숲속야영장" }, "geometry": { "type": "Point", "coordinates": [ 126.95001950000001, 36.8405946 ] } },
{ "type": "Feature", "properties": { "num": 144, "name": "구절초마을 캠핑장", "addr": "강원 정선군 여량면 노추산로 794", "call_num": "033-562-1666", "coord_x": 128.7320835, "coord_y": 37.5146165, "hashtag": "구절초마을캠핑장" }, "geometry": { "type": "Point", "coordinates": [ 128.732083499999987, 37.5146165 ] } },
{ "type": "Feature", "properties": { "num": 145, "name": "상순네 오토캠핑장", "addr": "강원도 영월군 중동면 고장골길 76-6 ", "call_num": "033-378-7767", "coord_x": 128.6585157, "coord_y": 37.1552007, "hashtag": "상순네오토캠핑장" }, "geometry": { "type": "Point", "coordinates": [ 128.6585157, 37.1552007 ] } },
{ "type": "Feature", "properties": { "num": 146, "name": "오봉산노지캠핑장", "addr": "충청남도 보령시 오천면 원산도리 1671-79 ", "call_num": null, "coord_x": 126.403672, "coord_y": 36.368558, "hashtag": "오봉산노지캠핑장" }, "geometry": { "type": "Point", "coordinates": [ 126.403672, 36.368558 ] } },
{ "type": "Feature", "properties": { "num": 147, "name": "소백산 신선펜션 & 캠핑", "addr": "충북 단양군 가곡면 새밭로 474", "call_num": "010-4963-7169", "coord_x": 128.4228607, "coord_y": 36.9958373, "hashtag": "소백산신선펜션앤캠핑" }, "geometry": { "type": "Point", "coordinates": [ 128.4228607, 36.9958373 ] } },
{ "type": "Feature", "properties": { "num": 148, "name": "군위전투전승기념공원 캠핑장", "addr": "경북 군위군 고로면 동부로 81", "call_num": "054-383-9480", "coord_x": 128.7491807, "coord_y": 36.1104811, "hashtag": "군위전투전승기념공원캠핑장" }, "geometry": { "type": "Point", "coordinates": [ 128.749180700000011, 36.1104811 ] } },
{ "type": "Feature", "properties": { "num": 149, "name": "연포야영장", "addr": "충청남도 태안군 근흥면 도황리 1526-184", "call_num": null, "coord_x": 126.207831, "coord_y": 36.693065, "hashtag": "연포야영장" }, "geometry": { "type": "Point", "coordinates": [ 126.207831, 36.693065 ] } },
{ "type": "Feature", "properties": { "num": 150, "name": "독박골 대청마루", "addr": "경기 가평군 상면 축령로 151-2", "call_num": null, "coord_x": 127.3565024, "coord_y": 37.77549, "hashtag": "독박골대청마루" }, "geometry": { "type": "Point", "coordinates": [ 127.3565024, 37.77549 ] } },
{ "type": "Feature", "properties": { "num": 151, "name": "웨스턴백사장오토캠핑장", "addr": "충청남도 태안군 안면읍 창기리 1269-17번지 ", "call_num": "041-672-7644", "coord_x": 126.315251, "coord_y": 36.57915, "hashtag": "웨스턴백사장오토캠핑장" }, "geometry": { "type": "Point", "coordinates": [ 126.315251, 36.57915 ] } },
{ "type": "Feature", "properties": { "num": 152, "name": "학암포 나로캠핑장", "addr": "충남 태안군 원북면 옥파로 1147", "call_num": "010-8406-6663", "coord_x": 126.203977, "coord_y": 36.8971075, "hashtag": "학암포나로캠핑장" }, "geometry": { "type": "Point", "coordinates": [ 126.203977, 36.8971075 ] } },
{ "type": "Feature", "properties": { "num": 153, "name": "파인힐캠프", "addr": "충남 예산군 덕산면 외라2길 60-24", "call_num": null, "coord_x": 126.6029133, "coord_y": 36.643923, "hashtag": "파인힐캠프" }, "geometry": { "type": "Point", "coordinates": [ 126.6029133, 36.643923 ] } },
{ "type": "Feature", "properties": { "num": 154, "name": "주노글램핑", "addr": "경북 영천시 자양면 별빛로 712-3", "call_num": "054-338-9700", "coord_x": 128.9986999, "coord_y": 36.1370786, "hashtag": "주노글램핑" }, "geometry": { "type": "Point", "coordinates": [ 128.99869990000002, 36.1370786 ] } },
{ "type": "Feature", "properties": { "num": 155, "name": "햇솔오토캠핑장", "addr": "인천시 강화군 길상면 선두리 907-3", "call_num": null, "coord_x": 126.4831782, "coord_y": 37.6067072, "hashtag": "햇솔오토캠핑장" }, "geometry": { "type": "Point", "coordinates": [ 126.483178200000012, 37.6067072 ] } },
{ "type": "Feature", "properties": { "num": 156, "name": "테이스트캠프", "addr": "경기도 포천시 이동면 화동로 2498-1", "call_num": "070-8152-6823", "coord_x": 127.3895979, "coord_y": 38.0633889, "hashtag": "테이스트캠프" }, "geometry": { "type": "Point", "coordinates": [ 127.3895979, 38.0633889 ] } },
{ "type": "Feature", "properties": { "num": 157, "name": "코끼리관광농원", "addr": "경북 고령군 덕곡면 지사동길 20-4", "call_num": "010-3528-0887", "coord_x": 128.2489528, "coord_y": 35.7635713, "hashtag": "코끼리관광농원" }, "geometry": { "type": "Point", "coordinates": [ 128.248952799999984, 35.7635713 ] } },
{ "type": "Feature", "properties": { "num": 158, "name": "칠갑산 자연휴양림", "addr": "충남 청양군 대치면 칠갑산로 668-103", "call_num": "041-940-2428", "coord_x": 126.8438241, "coord_y": 36.4315905, "hashtag": "칠갑산자연휴양림" }, "geometry": { "type": "Point", "coordinates": [ 126.8438241, 36.4315905 ] } },
{ "type": "Feature", "properties": { "num": 159, "name": "청도 힐링 오토캠핑장", "addr": "경북 청도군 매전면 송원길 86-6", "call_num": "010-4556-9141", "coord_x": 128.8071917, "coord_y": 35.6135852, "hashtag": "청도힐링오토캠핑장" }, "geometry": { "type": "Point", "coordinates": [ 128.8071917, 35.6135852 ] } },
{ "type": "Feature", "properties": { "num": 160, "name": "월악오토캠핑장", "addr": "충청북도 제천시 덕산면 월악산로 761 ", "call_num": "010-8849-9267", "coord_x": 128.1548361, "coord_y": 36.86914, "hashtag": "월악오토캠핑장" }, "geometry": { "type": "Point", "coordinates": [ 128.154836100000011, 36.86914 ] } },
{ "type": "Feature", "properties": { "num": 161, "name": "우물동산 관광농원", "addr": "경기도 포천시 영북면 산정리 777-3", "call_num": "031-532-0692", "coord_x": 127.3138636, "coord_y": 38.0486701, "hashtag": "우물동산관광농원" }, "geometry": { "type": "Point", "coordinates": [ 127.3138636, 38.0486701 ] } },
{ "type": "Feature", "properties": { "num": 162, "name": "에코야영장", "addr": "인천광역시 강화군 길상면 선두리 892-3", "call_num": null, "coord_x": 126.4790733, "coord_y": 37.6070626, "hashtag": "에코야영장" }, "geometry": { "type": "Point", "coordinates": [ 126.4790733, 37.6070626 ] } },
{ "type": "Feature", "properties": { "num": 163, "name": "심학산야영장", "addr": "경기도 파주시 돌곶이길 57(서패동 178-18번지)", "call_num": null, "coord_x": 126.6966317, "coord_y": 37.7139289, "hashtag": "심학산야영장" }, "geometry": { "type": "Point", "coordinates": [ 126.6966317, 37.7139289 ] } },
{ "type": "Feature", "properties": { "num": 164, "name": "숲과펜션야영장", "addr": "강원 평창군 방림면 고원로 1505-8", "call_num": "033-332-6118", "coord_x": 128.3588227, "coord_y": 37.4415063, "hashtag": "숲과펜션야영장" }, "geometry": { "type": "Point", "coordinates": [ 128.3588227, 37.4415063 ] } },
{ "type": "Feature", "properties": { "num": 165, "name": "송정솔바람야영장", "addr": "경남 남해군 미조면 미송로 483", "call_num": "055-867-3414", "coord_x": 128.0249669, "coord_y": 34.7231629, "hashtag": "송정솔바람야영장" }, "geometry": { "type": "Point", "coordinates": [ 128.02496690000001, 34.7231629 ] } },
{ "type": "Feature", "properties": { "num": 166, "name": "속초해변 국민여가캠핑장", "addr": "강원 속초시 해오름로 186 (조양동)", "call_num": "033-633-3171", "coord_x": 128.6035914, "coord_y": 38.1901406, "hashtag": "속초해변국민여가캠핑장" }, "geometry": { "type": "Point", "coordinates": [ 128.6035914, 38.1901406 ] } },
{ "type": "Feature", "properties": { "num": 167, "name": "섬진강 마실휴양숙박시설단지", "addr": "전라북도 순창군 적성면 강경길 76-165 ", "call_num": "063-653-9688", "coord_x": 127.2011695, "coord_y": 35.4603843, "hashtag": "섬진강마실휴양숙박시설단지" }, "geometry": { "type": "Point", "coordinates": [ 127.2011695, 35.4603843 ] } },
{ "type": "Feature", "properties": { "num": 168, "name": "생각나무자연학교", "addr": "경남 진주시 미천면 어옥로 3", "call_num": "055-794-1288", "coord_x": 128.12999, "coord_y": 35.2918054, "hashtag": "생각나무자연학교" }, "geometry": { "type": "Point", "coordinates": [ 128.12999, 35.2918054 ] } },
{ "type": "Feature", "properties": { "num": 169, "name": "부여사나래캠핑농원", "addr": "충남 부여군 양화면 상시로 151", "call_num": "010-6625-8260", "coord_x": 126.8583246, "coord_y": 36.0884522, "hashtag": "부여사나래캠핑농원" }, "geometry": { "type": "Point", "coordinates": [ 126.8583246, 36.0884522 ] } },
{ "type": "Feature", "properties": { "num": 170, "name": "봉식이놀이터", "addr": "경북 청도군 풍각면 봉수길 749-8", "call_num": "054-371-3969", "coord_x": 128.5560683, "coord_y": 35.6632006, "hashtag": "봉식이놀이터" }, "geometry": { "type": "Point", "coordinates": [ 128.5560683, 35.6632006 ] } },
{ "type": "Feature", "properties": { "num": 171, "name": "바다가 보이는 부산항 힐링 야영장", "addr": "부산광역시 동구 초량동 1185-1", "call_num": "051-400-1205", "coord_x": 129.0462238, "coord_y": 35.1160647, "hashtag": "바다가보이는부산항힐링야영장" }, "geometry": { "type": "Point", "coordinates": [ 129.046223799999979, 35.1160647 ] } },
{ "type": "Feature", "properties": { "num": 172, "name": "밀양댐유원지 펜션식당", "addr": "경남 밀양시 단장면 고례로 855", "call_num": "055-351-0088", "coord_x": 128.9285863, "coord_y": 35.4931562, "hashtag": "밀양댐유원지펜션식당" }, "geometry": { "type": "Point", "coordinates": [ 128.928586299999978, 35.4931562 ] } },
{ "type": "Feature", "properties": { "num": 173, "name": "돌고래오토캠핑장2", "addr": "충남 태안군 남면 몽산리 663-1,2", "call_num": "010-3705-8463", "coord_x": 126.2699613, "coord_y": 36.6745128, "hashtag": "돌고래오토캠핑장2" }, "geometry": { "type": "Point", "coordinates": [ 126.2699613, 36.6745128 ] } },
{ "type": "Feature", "properties": { "num": 174, "name": "덤바위 캠핑장", "addr": "충청북도 진천군 문백면 농다리로 615 ", "call_num": null, "coord_x": 127.4821912, "coord_y": 36.7999525, "hashtag": "덤바위캠핑장" }, "geometry": { "type": "Point", "coordinates": [ 127.4821912, 36.7999525 ] } },
{ "type": "Feature", "properties": { "num": 175, "name": "늘푸른캠핑장", "addr": "경기도 구리시 사노동 산175-140", "call_num": "031-572-4511", "coord_x": 127.1322694, "coord_y": 37.6354686, "hashtag": "늘푸른캠핑장" }, "geometry": { "type": "Point", "coordinates": [ 127.132269400000013, 37.6354686 ] } },
{ "type": "Feature", "properties": { "num": 176, "name": "국립두타산자연휴양림", "addr": "강원 평창군 진부면 아차골길 132", "call_num": "033-334-8815", "coord_x": 128.5760528, "coord_y": 37.5597958, "hashtag": "국립두타산자연휴양림" }, "geometry": { "type": "Point", "coordinates": [ 128.576052799999985, 37.5597958 ] } },
{ "type": "Feature", "properties": { "num": 177, "name": "괴강국민여가캠핑장", "addr": "충북 괴산군 괴산읍 충민로검승3길 10", "call_num": "010-8648-2901", "coord_x": 127.8252917, "coord_y": 36.8067614, "hashtag": "괴강국민여가캠핑장" }, "geometry": { "type": "Point", "coordinates": [ 127.8252917, 36.8067614 ] } },
{ "type": "Feature", "properties": { "num": 178, "name": "고래숲관광농원", "addr": "경기 안산시 단원구 장불길 14 (대부남동)", "call_num": "010-7672-2447", "coord_x": 126.5616367, "coord_y": 37.2002879, "hashtag": "고래숲관광농원" }, "geometry": { "type": "Point", "coordinates": [ 126.5616367, 37.2002879 ] } },
{ "type": "Feature", "properties": { "num": 179, "name": "계룡산글램핑파크 오브드림", "addr": "충남 공주시 반포면 동학사1로 46", "call_num": "041-960-1111", "coord_x": 127.2580169, "coord_y": 36.36874, "hashtag": "계룡산글램핑파크오브드림" }, "geometry": { "type": "Point", "coordinates": [ 127.2580169, 36.36874 ] } },
{ "type": "Feature", "properties": { "num": 180, "name": "거제글램퍼스", "addr": "경남 거제시 일운면 망치4길 38 ", "call_num": "010-6686-1475", "coord_x": 128.6651548, "coord_y": 34.8145708, "hashtag": "거제글램퍼스" }, "geometry": { "type": "Point", "coordinates": [ 128.665154799999982, 34.8145708 ] } },
{ "type": "Feature", "properties": { "num": 181, "name": "강변사리 캠핑장", "addr": "전라북도 임실군 덕치면 강동로 865-20", "call_num": "063-642-5351", "coord_x": 127.1900106, "coord_y": 35.4952009, "hashtag": "강변사리캠핑장" }, "geometry": { "type": "Point", "coordinates": [ 127.1900106, 35.4952009 ] } },
{ "type": "Feature", "properties": { "num": 182, "name": "강릉 노추산 힐링캠프", "addr": "강원 강릉시 왕산면 노추산로 1271-6", "call_num": "010-6375-3333", "coord_x": 128.7418225, "coord_y": 37.5715684, "hashtag": "강릉노추산힐링캠프" }, "geometry": { "type": "Point", "coordinates": [ 128.741822500000012, 37.5715684 ] } },
{ "type": "Feature", "properties": { "num": 183, "name": "갈천 오토캠핑장", "addr": "강원도 양양군 서면 구룡령로 1103-12 ", "call_num": "033-673-4041", "coord_x": 128.500403, "coord_y": 37.9112769, "hashtag": "갈천오토캠핑장" }, "geometry": { "type": "Point", "coordinates": [ 128.500403, 37.9112769 ] } },
{ "type": "Feature", "properties": { "num": 184, "name": "각흘봉관광농원", "addr": "경기도 포천시 이동면 도평리 572-3", "call_num": "031-536-8868", "coord_x": 127.3968454, "coord_y": 38.1079239, "hashtag": "각흘봉관광농원" }, "geometry": { "type": "Point", "coordinates": [ 127.396845400000018, 38.1079239 ] } },
{ "type": "Feature", "properties": { "num": 185, "name": "변산 오토캠핑장", "addr": "전북 부안군 변산면 변산로 2054", "call_num": "010-8447-8932", "coord_x": 126.5336697, "coord_y": 35.6824139, "hashtag": "변산오토캠핑장" }, "geometry": { "type": "Point", "coordinates": [ 126.5336697, 35.6824139 ] } },
{ "type": "Feature", "properties": { "num": 186, "name": "DMZ 마루캠핑", "addr": "경기도 연천군 중면 군중로 399", "call_num": "010-7935-6355", "coord_x": 127.019287, "coord_y": 38.1349255, "hashtag": "DMZ마루캠핑" }, "geometry": { "type": "Point", "coordinates": [ 127.019287, 38.1349255 ] } },
{ "type": "Feature", "properties": { "num": 187, "name": "(주)아웃오브파크", "addr": "강원도 춘천시 남면 가옹개길 52-9", "call_num": "1522-1861-", "coord_x": 127.5112565, "coord_y": 37.7278127, "hashtag": "아웃오브파크" }, "geometry": { "type": "Point", "coordinates": [ 127.511256499999988, 37.7278127 ] } },
{ "type": "Feature", "properties": { "num": 188, "name": "The Star 오토캠핑장", "addr": "전남 여수시 돌산읍 상하동길 268", "call_num": "061-641-1490", "coord_x": 127.7818433, "coord_y": 34.7181692, "hashtag": "TheStar오토캠핑장" }, "geometry": { "type": "Point", "coordinates": [ 127.7818433, 34.7181692 ] } },
{ "type": "Feature", "properties": { "num": 189, "name": "가람관광농원", "addr": "경남 합천군 봉산면 인덕로 930", "call_num": "010-9704-2582", "coord_x": 128.0576, "coord_y": 35.5873961, "hashtag": "가람관광농원" }, "geometry": { "type": "Point", "coordinates": [ 128.0576, 35.5873961 ] } },
{ "type": "Feature", "properties": { "num": 190, "name": "YC글램핑", "addr": "경기 연천군 미산면 청정로 1049", "call_num": "010-5097-6446", "coord_x": 126.9660207, "coord_y": 38.0382263, "hashtag": "YC글램핑" }, "geometry": { "type": "Point", "coordinates": [ 126.966020699999987, 38.0382263 ] } },
{ "type": "Feature", "properties": { "num": 191, "name": "505펜션&캠핑(오공오)", "addr": "충남 공주시 사곡면 호계황골길 43", "call_num": "010-7330-2505", "coord_x": 127.02077, "coord_y": 36.5017433, "hashtag": "505펜션앤캠핑" }, "geometry": { "type": "Point", "coordinates": [ 127.02077, 36.5017433 ] } },
{ "type": "Feature", "properties": { "num": 192, "name": "(주)디노담양힐링파크 지점", "addr": "전남 담양군 봉산면 탄금길 9-26", "call_num": "061-383-5155", "coord_x": 126.9609528, "coord_y": 35.2714369, "hashtag": "디노담양힐링파크지점" }, "geometry": { "type": "Point", "coordinates": [ 126.960952799999987, 35.2714369 ] } },
{ "type": "Feature", "properties": { "num": 193, "name": "골짜구니야영장", "addr": "강원 양양군 서면 구룡령로 1807", "call_num": null, "coord_x": 128.5159794, "coord_y": 37.9639747, "hashtag": "골짜구니야영장" }, "geometry": { "type": "Point", "coordinates": [ 128.5159794, 37.9639747 ] } },
{ "type": "Feature", "properties": { "num": 194, "name": "블루웨일 빌리지", "addr": "경남 고성군 삼산면 두포5길 113-109", "call_num": "055-673-4994", "coord_x": 128.3000032, "coord_y": 34.9246781, "hashtag": "블루웨일빌리지" }, "geometry": { "type": "Point", "coordinates": [ 128.30000320000002, 34.9246781 ] } },
{ "type": "Feature", "properties": { "num": 195, "name": "불스 글램핑", "addr": "울산 울주군 두서면 아미산못길 26-50", "call_num": null, "coord_x": 129.1590724, "coord_y": 35.6841624, "hashtag": "불스글램핑" }, "geometry": { "type": "Point", "coordinates": [ 129.159072400000014, 35.6841624 ] } },
{ "type": "Feature", "properties": { "num": 196, "name": "봉산극기체험권역캠핑장", "addr": "경상북도 포항시 남구 장기면 창지리 ", "call_num": "054-274-3066", "coord_x": 129.4821544, "coord_y": 35.9300896, "hashtag": "봉산극기체험권역캠핑장" }, "geometry": { "type": "Point", "coordinates": [ 129.482154400000013, 35.9300896 ] } },
{ "type": "Feature", "properties": { "num": 197, "name": "지리산산내들펜션야영장", "addr": "전라북도 남원시 산내면 천왕봉로 892 ", "call_num": "010-3600-1046", "coord_x": 127.6442642, "coord_y": 35.4121408, "hashtag": "지리산산내들펜션야영장" }, "geometry": { "type": "Point", "coordinates": [ 127.6442642, 35.4121408 ] } },
{ "type": "Feature", "properties": { "num": 198, "name": "힐사이드캠핑장", "addr": "충청북도 진천군 문백면 태락리 ", "call_num": "010-6421-7586", "coord_x": 127.4323782, "coord_y": 36.820146, "hashtag": "힐사이드캠핑장" }, "geometry": { "type": "Point", "coordinates": [ 127.432378200000016, 36.820146 ] } },
{ "type": "Feature", "properties": { "num": 199, "name": "동상힐링캠핑장", "addr": "전라북도 완주군 동상면 신월리 ", "call_num": "010-5678-7386", "coord_x": 127.3068406, "coord_y": 35.9597889, "hashtag": "동상힐링캠핑장" }, "geometry": { "type": "Point", "coordinates": [ 127.3068406, 35.9597889 ] } },
{ "type": "Feature", "properties": { "num": 200, "name": "노을공원 노을캠핑장", "addr": "서울 마포구 하늘공원로 108-1 (상암동)", "call_num": "02-304-3213", "coord_x": 126.8730718, "coord_y": 37.5738412, "hashtag": "노을공원노을캠핑장" }, "geometry": { "type": "Point", "coordinates": [ 126.8730718, 37.5738412 ] } },
{ "type": "Feature", "properties": { "num": 201, "name": "코코로망스", "addr": "인천 옹진군 영흥면 영흥로685번길 76", "call_num": null, "coord_x": 126.4532204, "coord_y": 37.2708458, "hashtag": "코코로망스" }, "geometry": { "type": "Point", "coordinates": [ 126.453220400000021, 37.2708458 ] } },
{ "type": "Feature", "properties": { "num": 202, "name": "삼정야영장", "addr": "경남 합천군 가야면 가야산로 1645-8", "call_num": "055-930-8000", "coord_x": 128.1004247, "coord_y": 35.7886115, "hashtag": "삼정야영장" }, "geometry": { "type": "Point", "coordinates": [ 128.1004247, 35.7886115 ] } },
{ "type": "Feature", "properties": { "num": 203, "name": "지리산오토캠핑장 (호호당)", "addr": "전라남도 구례군 산동면 수락폭포로 170-5 ", "call_num": "061-781-9114", "coord_x": 127.4514518, "coord_y": 35.3308948, "hashtag": "지리산오토캠핑장" }, "geometry": { "type": "Point", "coordinates": [ 127.451451799999987, 35.3308948 ] } },
{ "type": "Feature", "properties": { "num": 204, "name": "플레이랜드 캠핑장", "addr": "경기도 파주시 광탄면 보광로 538번길 21", "call_num": "1544-2524-", "coord_x": 126.9091064, "coord_y": 37.7557045, "hashtag": "플레이랜드캠핑장" }, "geometry": { "type": "Point", "coordinates": [ 126.9091064, 37.7557045 ] } },
{ "type": "Feature", "properties": { "num": 205, "name": "덕동 산상낙원", "addr": "충청북도 제천시 덕동로 609-90 ", "call_num": "010-7188-6923", "coord_x": 127.9460559, "coord_y": 37.2135697, "hashtag": "덕동산상낙원" }, "geometry": { "type": "Point", "coordinates": [ 127.946055900000019, 37.2135697 ] } },
{ "type": "Feature", "properties": { "num": 206, "name": "강원도산림개발연구원 집다리골자연휴양림", "addr": "강원도 춘천시 사북면 지암리 산5", "call_num": "033-243-1442", "coord_x": 127.5738331, "coord_y": 37.9778582, "hashtag": "강원도산림개발연구원집다리골자연휴양림" }, "geometry": { "type": "Point", "coordinates": [ 127.5738331, 37.9778582 ] } },
{ "type": "Feature", "properties": { "num": 207, "name": "충주커피박물관 글램핑카라반펜션", "addr": "충북 충주시 살미면 월악로 432", "call_num": "010-3327-4553", "coord_x": 128.0145503, "coord_y": 36.9045459, "hashtag": "충주커피박물관글램핑카라반펜션" }, "geometry": { "type": "Point", "coordinates": [ 128.0145503, 36.9045459 ] } },
{ "type": "Feature", "properties": { "num": 208, "name": "나라펜션캠핑장", "addr": "경기 안산시 단원구 장불길 31-23 (대부남동)", "call_num": "010-9041-6557", "coord_x": 126.5603735, "coord_y": 37.1997701, "hashtag": "나라펜션캠핑장" }, "geometry": { "type": "Point", "coordinates": [ 126.560373500000011, 37.1997701 ] } },
{ "type": "Feature", "properties": { "num": 209, "name": "왕터리조트", "addr": "강원 춘천시 남면 박암관천길 183-27", "call_num": "070-7721-5441", "coord_x": 127.5612654, "coord_y": 37.7300273, "hashtag": "왕터리조트" }, "geometry": { "type": "Point", "coordinates": [ 127.561265400000011, 37.7300273 ] } },
{ "type": "Feature", "properties": { "num": 210, "name": "캠핑 올라", "addr": "강원 영월군 주천면 황산벌길 186", "call_num": "010-3680-7560", "coord_x": 128.2778196, "coord_y": 37.2192715, "hashtag": "캠핑올라" }, "geometry": { "type": "Point", "coordinates": [ 128.277819599999987, 37.2192715 ] } },
{ "type": "Feature", "properties": { "num": 211, "name": "리버뷰캠핑장", "addr": "경남 산청군 금서면 동의보감로312번가길 141-70", "call_num": null, "coord_x": 127.851419, "coord_y": 35.4495208, "hashtag": "리버뷰캠핑장" }, "geometry": { "type": "Point", "coordinates": [ 127.851419, 35.4495208 ] } },
{ "type": "Feature", "properties": { "num": 212, "name": "문장대 야영장", "addr": "경상북도 상주시 화북면 용유리 ", "call_num": "054-537-7115", "coord_x": 127.9221936, "coord_y": 36.5580922, "hashtag": "문장대야영장" }, "geometry": { "type": "Point", "coordinates": [ 127.9221936, 36.5580922 ] } },
{ "type": "Feature", "properties": { "num": 213, "name": "큐브빌리지글램핑", "addr": "전남 강진군 대구면 청자로 1339-74", "call_num": "010-2224-2618", "coord_x": 126.8000499, "coord_y": 34.5351298, "hashtag": "큐브빌리지글램핑" }, "geometry": { "type": "Point", "coordinates": [ 126.8000499, 34.5351298 ] } },
{ "type": "Feature", "properties": { "num": 214, "name": "링크독애견파크 글램핑&오토캠핑장", "addr": "경기도 가평군 설악면 신천리 263-1", "call_num": "010-5382-1943", "coord_x": 127.489931, "coord_y": 37.661018, "hashtag": "링크독애견파크글램핑앤오토캠핑장" }, "geometry": { "type": "Point", "coordinates": [ 127.489931, 37.661018 ] } },
{ "type": "Feature", "properties": { "num": 215, "name": "중미산 자연휴양림", "addr": "경기 양평군 옥천면 중미산로 1152", "call_num": "031-771-1766", "coord_x": 127.4546124, "coord_y": 37.5880186, "hashtag": "중미산자연휴양림" }, "geometry": { "type": "Point", "coordinates": [ 127.4546124, 37.5880186 ] } },
{ "type": "Feature", "properties": { "num": 216, "name": "완도 명사십리 오토캠핑장", "addr": "전남 완도군 신지면 명사십리61번길 54", "call_num": null, "coord_x": 126.8117379, "coord_y": 34.3298246, "hashtag": "완도명사십리오토캠핑장" }, "geometry": { "type": "Point", "coordinates": [ 126.8117379, 34.3298246 ] } },
{ "type": "Feature", "properties": { "num": 217, "name": "화양동야영장", "addr": "충북 괴산군 청천면 화양로 733-38", "call_num": "010-2368-1544", "coord_x": 127.8065262, "coord_y": 36.6830252, "hashtag": "화양동야영장" }, "geometry": { "type": "Point", "coordinates": [ 127.8065262, 36.6830252 ] } },
{ "type": "Feature", "properties": { "num": 218, "name": "청평원레저타운", "addr": "경기 가평군 청평면 북한강로 2060", "call_num": "031-585-8892", "coord_x": 127.3948414, "coord_y": 37.6999473, "hashtag": "청평원레저타운" }, "geometry": { "type": "Point", "coordinates": [ 127.3948414, 37.6999473 ] } },
{ "type": "Feature", "properties": { "num": 219, "name": "용소캠핑장", "addr": "경기 가평군 북면 가화로 2411-32", "call_num": "010-4815-7033", "coord_x": 127.4737477, "coord_y": 37.9543807, "hashtag": "용소캠핑장" }, "geometry": { "type": "Point", "coordinates": [ 127.4737477, 37.9543807 ] } },
{ "type": "Feature", "properties": { "num": 220, "name": "상비오토캠핑", "addr": "경북 고령군 덕곡면 덕운로 1260", "call_num": "010-3821-9241", "coord_x": 128.1745107, "coord_y": 35.7991026, "hashtag": "상비오토캠핑" }, "geometry": { "type": "Point", "coordinates": [ 128.174510700000013, 35.7991026 ] } },
{ "type": "Feature", "properties": { "num": 221, "name": "풀무골 글램핑장", "addr": "경기 안성시 고삼면 쌍지길 292", "call_num": "010-7321-3319", "coord_x": 127.286738, "coord_y": 37.122232, "hashtag": "풀무골글램핑장" }, "geometry": { "type": "Point", "coordinates": [ 127.286738, 37.122232 ] } },
{ "type": "Feature", "properties": { "num": 222, "name": "청암관광농원", "addr": "경기 이천시 부발읍 황무로1720번길 74", "call_num": "031-632-5082", "coord_x": 127.515463, "coord_y": 37.2676913, "hashtag": "청암관광농원" }, "geometry": { "type": "Point", "coordinates": [ 127.515463, 37.2676913 ] } },
{ "type": "Feature", "properties": { "num": 223, "name": "토일관광농원", "addr": "경기 포천시 군내면 청군로 2857", "call_num": "010-5248-5912", "coord_x": 127.2496531, "coord_y": 37.867074, "hashtag": "토일관광농원" }, "geometry": { "type": "Point", "coordinates": [ 127.249653099999989, 37.867074 ] } },
{ "type": "Feature", "properties": { "num": 224, "name": "달다래 체험장", "addr": "경남 고성군 동해면 조선특구로 1526", "call_num": null, "coord_x": 128.4801519, "coord_y": 35.0280029, "hashtag": "달다래체험장" }, "geometry": { "type": "Point", "coordinates": [ 128.48015190000001, 35.0280029 ] } },
{ "type": "Feature", "properties": { "num": 225, "name": "중랑캠핑숲", "addr": "서울 중랑구 망우로87길 110 (망우동)", "call_num": "02-434-4371", "coord_x": 127.1093075, "coord_y": 37.6049896, "hashtag": "중랑캠핑숲" }, "geometry": { "type": "Point", "coordinates": [ 127.1093075, 37.6049896 ] } },
{ "type": "Feature", "properties": { "num": 226, "name": "워렉스야영장", "addr": "전라남도 화순군 한천면 죽헌로 376-37", "call_num": "061-373-4506", "coord_x": 127.0113365, "coord_y": 34.9728435, "hashtag": "워렉스야영장" }, "geometry": { "type": "Point", "coordinates": [ 127.0113365, 34.9728435 ] } },
{ "type": "Feature", "properties": { "num": 227, "name": "계룡산글램핑", "addr": "충남 공주시 반포면 계룡대로 1352", "call_num": "070-5055-0319", "coord_x": 127.2534939, "coord_y": 36.3561125, "hashtag": "계룡산글램핑" }, "geometry": { "type": "Point", "coordinates": [ 127.2534939, 36.3561125 ] } },
{ "type": "Feature", "properties": { "num": 228, "name": "자두마을", "addr": "전라북도 정읍시 내장동 286-1번지 ", "call_num": "010-4110-9930", "coord_x": 126.91984, "coord_y": 35.512121, "hashtag": "자두마을" }, "geometry": { "type": "Point", "coordinates": [ 126.91984, 35.512121 ] } },
{ "type": "Feature", "properties": { "num": 229, "name": "용오름캠핑장", "addr": "강원 홍천군 서석면 검산길 263", "call_num": "033-436-0732", "coord_x": 128.2361555, "coord_y": 37.7208787, "hashtag": "용오름캠핑장" }, "geometry": { "type": "Point", "coordinates": [ 128.2361555, 37.7208787 ] } },
{ "type": "Feature", "properties": { "num": 230, "name": "선녀와 나무꾼", "addr": "경북 경주시 양남면 동남로 496-11", "call_num": "054-743-4000", "coord_x": 129.4040316, "coord_y": 35.6638503, "hashtag": "선녀와나무꾼캠핑장" }, "geometry": { "type": "Point", "coordinates": [ 129.4040316, 35.6638503 ] } },
{ "type": "Feature", "properties": { "num": 231, "name": "밀양캠핑홀릭", "addr": "경남 밀양시 청도면 조천길 337-64", "call_num": "010-7159-5046", "coord_x": 128.6187256, "coord_y": 35.518514, "hashtag": "밀양캠핑홀릭" }, "geometry": { "type": "Point", "coordinates": [ 128.6187256, 35.518514 ] } },
{ "type": "Feature", "properties": { "num": 232, "name": "가로림글램핑 주식회사", "addr": "충남 서산시 팔봉면 범머리길 80", "call_num": null, "coord_x": 126.3292826, "coord_y": 36.8345141, "hashtag": "가로림글램핑주식회사" }, "geometry": { "type": "Point", "coordinates": [ 126.329282599999985, 36.8345141 ] } },
{ "type": "Feature", "properties": { "num": 233, "name": "포포나무야영장", "addr": "충남 청양군 화성면 배울제길 36-17", "call_num": null, "coord_x": 126.715985, "coord_y": 36.4417347, "hashtag": "포포나무야영장" }, "geometry": { "type": "Point", "coordinates": [ 126.715985, 36.4417347 ] } },
{ "type": "Feature", "properties": { "num": 234, "name": "블루문캠핑장", "addr": "경기 가평군 상면 수목원로386번길 43", "call_num": null, "coord_x": 127.3501337, "coord_y": 37.7467579, "hashtag": "블루문캠핑장" }, "geometry": { "type": "Point", "coordinates": [ 127.3501337, 37.7467579 ] } },
{ "type": "Feature", "properties": { "num": 235, "name": "안단테 홍천캠핑장", "addr": "강원도 홍천군 내촌면 답풍리 ", "call_num": "033-433-0211", "coord_x": 128.0826466, "coord_y": 37.8072142, "hashtag": "안단테홍천캠핑장" }, "geometry": { "type": "Point", "coordinates": [ 128.0826466, 37.8072142 ] } },
{ "type": "Feature", "properties": { "num": 236, "name": "조은자리 캠핑장", "addr": "경북 청도군 운문면 신원리 398번지", "call_num": "010-4145-8984", "coord_x": 128.984917, "coord_y": 35.678157, "hashtag": "조은자리캠핑장" }, "geometry": { "type": "Point", "coordinates": [ 128.984917, 35.678157 ] } },
{ "type": "Feature", "properties": { "num": 237, "name": "평사리공원 야영장", "addr": "경상남도 하동군 악양면 평사리 ", "call_num": "055-880-2493", "coord_x": 127.6889294, "coord_y": 35.1381594, "hashtag": "평사리공원야영장" }, "geometry": { "type": "Point", "coordinates": [ 127.6889294, 35.1381594 ] } },
{ "type": "Feature", "properties": { "num": 238, "name": "초원오토캠핑장", "addr": "충청북도 충주시 중앙탑면 감노로 2003 ", "call_num": "043-855-8466", "coord_x": 127.8166349, "coord_y": 37.0394174, "hashtag": "초원오토캠핑장" }, "geometry": { "type": "Point", "coordinates": [ 127.816634900000011, 37.0394174 ] } },
{ "type": "Feature", "properties": { "num": 239, "name": "집보다 캠핑장", "addr": "경기도 안성시 양성면 도라지길 29-22", "call_num": "010-5302-4242", "coord_x": 127.5320818, "coord_y": 37.7504085, "hashtag": "집보다캠핑장" }, "geometry": { "type": "Point", "coordinates": [ 127.5320818, 37.7504085 ] } },
{ "type": "Feature", "properties": { "num": 240, "name": "엘리시안 캠핑플레이스", "addr": "강원 춘천시 남산면 북한강변길 688", "call_num": "033-260-2374", "coord_x": 127.5879199, "coord_y": 37.8167312, "hashtag": "엘리시안캠핑플레이스" }, "geometry": { "type": "Point", "coordinates": [ 127.5879199, 37.8167312 ] } },
{ "type": "Feature", "properties": { "num": 241, "name": "아우라지 글램핑", "addr": "강원도 정선군 여량면 노추산로 520 ", "call_num": "033-563-2283", "coord_x": 128.7126807, "coord_y": 37.5089982, "hashtag": "아우라지글램핑" }, "geometry": { "type": "Point", "coordinates": [ 128.7126807, 37.5089982 ] } },
{ "type": "Feature", "properties": { "num": 242, "name": "산음숲자연학교 힐링캠핑장", "addr": "경기도 양평군 단월면 봉미산샘골길 1 ", "call_num": "031-771-2504", "coord_x": 127.6005389, "coord_y": 37.6057269, "hashtag": "산음숲자연학교힐링캠핑장" }, "geometry": { "type": "Point", "coordinates": [ 127.6005389, 37.6057269 ] } },
{ "type": "Feature", "properties": { "num": 243, "name": "문화관광농원청소년야영장", "addr": "경상남도 거제시 동부면 가배오송길 123", "call_num": "055-633-5955", "coord_x": 128.5795813, "coord_y": 34.7894635, "hashtag": "문화관광농원청소년야영장" }, "geometry": { "type": "Point", "coordinates": [ 128.5795813, 34.7894635 ] } },
{ "type": "Feature", "properties": { "num": 244, "name": "동막골야영장", "addr": "강원도 삼척시 근덕면 동막리 ", "call_num": "070-7750-8715", "coord_x": 129.234428, "coord_y": 37.3240644, "hashtag": "동막골야영장" }, "geometry": { "type": "Point", "coordinates": [ 129.234428, 37.3240644 ] } },
{ "type": "Feature", "properties": { "num": 245, "name": "개미들솔향기야영장", "addr": "강원도 정선군 남면 광락로 354 ", "call_num": "010-9591-1641", "coord_x": 128.6927604, "coord_y": 37.3191264, "hashtag": "개미들솔향기야영장" }, "geometry": { "type": "Point", "coordinates": [ 128.6927604, 37.3191264 ] } },
{ "type": "Feature", "properties": { "num": 246, "name": "백담정 캠핑장", "addr": "강원 인제군 북면 백담로 126", "call_num": null, "coord_x": 128.3560104, "coord_y": 38.1920549, "hashtag": "백담정캠핑장" }, "geometry": { "type": "Point", "coordinates": [ 128.3560104, 38.1920549 ] } },
{ "type": "Feature", "properties": { "num": 247, "name": "철이네캠핑장", "addr": "경기 가평군 설악면 유명산길 79-18", "call_num": null, "coord_x": 127.4906148, "coord_y": 37.5941524, "hashtag": "철이네캠핑장" }, "geometry": { "type": "Point", "coordinates": [ 127.4906148, 37.5941524 ] } },
{ "type": "Feature", "properties": { "num": 248, "name": "구름계곡캠핑장", "addr": "경기도 가평군 북면 제령리 219-2번지", "call_num": "010-4734-2578", "coord_x": 127.538741, "coord_y": 37.8879007, "hashtag": "구름계곡캠핑장" }, "geometry": { "type": "Point", "coordinates": [ 127.538741, 37.8879007 ] } },
{ "type": "Feature", "properties": { "num": 249, "name": "장흥숲길캠핑장", "addr": "경기 양주시 장흥면 권율로 156-116", "call_num": "031-828-9881", "coord_x": 126.9531337, "coord_y": 37.7287518, "hashtag": "장흥숲길캠핑장" }, "geometry": { "type": "Point", "coordinates": [ 126.9531337, 37.7287518 ] } },
{ "type": "Feature", "properties": { "num": 250, "name": "광덕산 풍경캠핑장", "addr": "충남 천안시 동남구 광덕면 해수길 178-56", "call_num": "010-2898-9822", "coord_x": 127.0279163, "coord_y": 36.6755136, "hashtag": "광덕산풍경캠핑장" }, "geometry": { "type": "Point", "coordinates": [ 127.0279163, 36.6755136 ] } },
{ "type": "Feature", "properties": { "num": 251, "name": "춘천Believing(빌리빙)캠핑장", "addr": "강원도 춘천시 사북면 지암리 ", "call_num": "010-8747-6416", "coord_x": 127.6278216, "coord_y": 37.9767025, "hashtag": "춘천빌리빙캠핑장" }, "geometry": { "type": "Point", "coordinates": [ 127.6278216, 37.9767025 ] } },
{ "type": "Feature", "properties": { "num": 252, "name": "톱머리 글램핑장", "addr": "전남 무안군 망운면 톱머리길 66-5", "call_num": "061-450-5706", "coord_x": 126.3835195, "coord_y": 34.9691293, "hashtag": "톱머리글램핑장" }, "geometry": { "type": "Point", "coordinates": [ 126.3835195, 34.9691293 ] } },
{ "type": "Feature", "properties": { "num": 253, "name": "월촌캠핑야영장", "addr": "경상남도 함안군 군북면 월촌3길 71-13", "call_num": "055-582-7780", "coord_x": 128.3020472, "coord_y": 35.291564, "hashtag": "월촌캠핑야영장" }, "geometry": { "type": "Point", "coordinates": [ 128.3020472, 35.291564 ] } },
{ "type": "Feature", "properties": { "num": 254, "name": "삼밭골글램핑", "addr": "경상북도 영천시 삼밭골길 107 ", "call_num": "010-6822-8807", "coord_x": 128.9404502, "coord_y": 35.9898702, "hashtag": "삼밭골글램핑" }, "geometry": { "type": "Point", "coordinates": [ 128.940450200000015, 35.9898702 ] } },
{ "type": "Feature", "properties": { "num": 255, "name": "서울 서초 글램핑 청계산장", "addr": "서울 서초구 청계산로 140-94 (원지동)", "call_num": null, "coord_x": 127.0464076, "coord_y": 37.4484078, "hashtag": "서울서초글램핑청계산장" }, "geometry": { "type": "Point", "coordinates": [ 127.0464076, 37.4484078 ] } },
{ "type": "Feature", "properties": { "num": 256, "name": "몽산포그린캠핑장", "addr": "충청남도 태안군 남면 신장리 433-10번지 ", "call_num": null, "coord_x": 126.291743, "coord_y": 36.670059, "hashtag": "몽산포그린캠핑장" }, "geometry": { "type": "Point", "coordinates": [ 126.291743, 36.670059 ] } },
{ "type": "Feature", "properties": { "num": 257, "name": "하너미 캠핑장", "addr": "충북 충주시 앙성면 하너미로 501-3", "call_num": null, "coord_x": 127.7479465, "coord_y": 37.0841041, "hashtag": "하너미캠핑장" }, "geometry": { "type": "Point", "coordinates": [ 127.747946500000012, 37.0841041 ] } },
{ "type": "Feature", "properties": { "num": 258, "name": "강화무지개글램핑", "addr": "인천광역시 강화군 송해면 양오리 640-1번지", "call_num": "010-5351-2760", "coord_x": 126.456008, "coord_y": 37.795626, "hashtag": "강화무지개글램핑" }, "geometry": { "type": "Point", "coordinates": [ 126.456008, 37.795626 ] } },
{ "type": "Feature", "properties": { "num": 259, "name": "엘리캠핑장", "addr": "경기 화성시 비봉면 미륵골로 108-17", "call_num": "010-4546-0244", "coord_x": 126.869957, "coord_y": 37.2267142, "hashtag": "엘리캠핑장" }, "geometry": { "type": "Point", "coordinates": [ 126.869957, 37.2267142 ] } },
{ "type": "Feature", "properties": { "num": 260, "name": "프라도 캠핑장", "addr": "경기 가평군 북면 화악산로207번길 5-29", "call_num": null, "coord_x": 127.5603689, "coord_y": 37.898868, "hashtag": "프라도캠핑장" }, "geometry": { "type": "Point", "coordinates": [ 127.5603689, 37.898868 ] } },
{ "type": "Feature", "properties": { "num": 261, "name": "문경 단산 숲속 캠핑장", "addr": "경북 문경시 문경읍 활공장길 585", "call_num": "054-572-7273", "coord_x": 128.1742242, "coord_y": 36.7302895, "hashtag": "문경단산숲속캠핑장" }, "geometry": { "type": "Point", "coordinates": [ 128.1742242, 36.7302895 ] } },
{ "type": "Feature", "properties": { "num": 262, "name": "연포제1야영장", "addr": "충남 태안군 근흥면 연포2길 57", "call_num": null, "coord_x": 126.2082449, "coord_y": 36.6939853, "hashtag": "연포제1야영장" }, "geometry": { "type": "Point", "coordinates": [ 126.2082449, 36.6939853 ] } },
{ "type": "Feature", "properties": { "num": 263, "name": "은하수 캠핑장", "addr": "경기 양주시 남면 감악산로514번길 468-8", "call_num": null, "coord_x": 126.9667082, "coord_y": 37.922057, "hashtag": "은하수캠핑장" }, "geometry": { "type": "Point", "coordinates": [ 126.9667082, 37.922057 ] } },
{ "type": "Feature", "properties": { "num": 264, "name": "풀내음캠핑장", "addr": "경기 화성시 봉담읍 도곡1길 20-21", "call_num": "010-5349-8768", "coord_x": 126.9203713, "coord_y": 37.1996978, "hashtag": "풀내음캠핑장" }, "geometry": { "type": "Point", "coordinates": [ 126.9203713, 37.1996978 ] } },
{ "type": "Feature", "properties": { "num": 265, "name": "올덴캠핑장", "addr": "경기 가평군 청평면 고재길 262-64", "call_num": "031-585-5558", "coord_x": 127.5169624, "coord_y": 37.7022064, "hashtag": "올덴캠핑장" }, "geometry": { "type": "Point", "coordinates": [ 127.516962400000011, 37.7022064 ] } },
{ "type": "Feature", "properties": { "num": 266, "name": "덕포진누리마을캠핑장", "addr": "경기도 김포시 대곶면 신안리 ", "call_num": "010-8577-3710", "coord_x": 126.5377794, "coord_y": 37.6509068, "hashtag": "덕포진누리마을캠핑장" }, "geometry": { "type": "Point", "coordinates": [ 126.5377794, 37.6509068 ] } },
{ "type": "Feature", "properties": { "num": 267, "name": "룩스글램핑앤팜", "addr": "경북 안동시 도산면 양평길 23-52", "call_num": "054-855-5578", "coord_x": 128.8421119, "coord_y": 36.7480684, "hashtag": "룩스글램핑앤팜" }, "geometry": { "type": "Point", "coordinates": [ 128.8421119, 36.7480684 ] } },
{ "type": "Feature", "properties": { "num": 268, "name": "백운힐링 캠핑장", "addr": "경기도 포천시 이동면 도평리 26 ", "call_num": "031-536-3754", "coord_x": 127.4182271, "coord_y": 38.0762131, "hashtag": "백운힐링캠핑장" }, "geometry": { "type": "Point", "coordinates": [ 127.4182271, 38.0762131 ] } },
{ "type": "Feature", "properties": { "num": 269, "name": "변산반도국립공원 고사포 야영장 (임시)", "addr": "전라북도 부안군 변산면 운산리 441-11 ", "call_num": "063-582-7835", "coord_x": 126.5092132, "coord_y": 35.6626201, "hashtag": "고사포야영장" }, "geometry": { "type": "Point", "coordinates": [ 126.5092132, 35.6626201 ] } },
{ "type": "Feature", "properties": { "num": 270, "name": "광릉숲 이야기 관광농원", "addr": "경기도 포천시 소흘읍 직동리 ", "call_num": "010-5694-7994", "coord_x": 127.1706732, "coord_y": 37.7664661, "hashtag": "광릉숲이야기관광농원" }, "geometry": { "type": "Point", "coordinates": [ 127.17067320000001, 37.7664661 ] } },
{ "type": "Feature", "properties": { "num": 271, "name": "추동캠프", "addr": "경기 포천시 창수면 포천로2811번길 194", "call_num": "031-531-4655", "coord_x": 127.1556949, "coord_y": 37.9915799, "hashtag": "추동캠프" }, "geometry": { "type": "Point", "coordinates": [ 127.1556949, 37.9915799 ] } },
{ "type": "Feature", "properties": { "num": 272, "name": "팝콘야영장", "addr": "충청북도 괴산군 장연면 충민로 1675 ", "call_num": "043-833-1717", "coord_x": 127.9309631, "coord_y": 36.8710392, "hashtag": "팝콘야영장" }, "geometry": { "type": "Point", "coordinates": [ 127.9309631, 36.8710392 ] } },
{ "type": "Feature", "properties": { "num": 273, "name": "J글램핑", "addr": "경남 사천시 서포면 거북길 468-116", "call_num": "010-4162-9778", "coord_x": 127.9755765, "coord_y": 34.9662981, "hashtag": "J글램핑" }, "geometry": { "type": "Point", "coordinates": [ 127.975576499999988, 34.9662981 ] } },
{ "type": "Feature", "properties": { "num": 274, "name": "베리굿 오토캠핑장", "addr": "전남 함평군 신광면 삼무길 137-33", "call_num": null, "coord_x": 126.475011, "coord_y": 35.180632, "hashtag": "베리굿오토캠핑장" }, "geometry": { "type": "Point", "coordinates": [ 126.475011, 35.180632 ] } },
{ "type": "Feature", "properties": { "num": 275, "name": "에어그라운드", "addr": "제주특별자치도 서귀포시 남원읍 남태해안로 439", "call_num": null, "coord_x": 126.7465795, "coord_y": 33.2820588, "hashtag": "에어그라운드" }, "geometry": { "type": "Point", "coordinates": [ 126.7465795, 33.2820588 ] } },
{ "type": "Feature", "properties": { "num": 276, "name": "연지곤지팜캠핑장", "addr": "경기 포천시 소흘읍 직동길 48", "call_num": null, "coord_x": 127.1693863, "coord_y": 37.7673365, "hashtag": "연지곤지팜캠핑장" }, "geometry": { "type": "Point", "coordinates": [ 127.169386299999985, 37.7673365 ] } },
{ "type": "Feature", "properties": { "num": 277, "name": "매초 동화마을 품&카라반", "addr": "경기 동두천시 삼육사로 1366 (탑동동)", "call_num": "010-5255-6556", "coord_x": 127.0986274, "coord_y": 37.8896374, "hashtag": "매초동화마을품앤카라반" }, "geometry": { "type": "Point", "coordinates": [ 127.0986274, 37.8896374 ] } },
{ "type": "Feature", "properties": { "num": 278, "name": "깊이울관광농원", "addr": "경기 포천시 신북면 깊이울로 139-8", "call_num": "031-532-9787", "coord_x": 127.175917, "coord_y": 37.9239705, "hashtag": "깊이울관광농원" }, "geometry": { "type": "Point", "coordinates": [ 127.175917, 37.9239705 ] } },
{ "type": "Feature", "properties": { "num": 279, "name": "알파카스테이", "addr": "강원 홍천군 화촌면 가락재로 206", "call_num": "1899-2250-", "coord_x": 127.8882513, "coord_y": 37.8331987, "hashtag": "알파카스테이" }, "geometry": { "type": "Point", "coordinates": [ 127.8882513, 37.8331987 ] } },
{ "type": "Feature", "properties": { "num": 280, "name": "솔향기캠핑장", "addr": "충남 태안군 소원면 모항항길 29", "call_num": "041-672-1255", "coord_x": 126.1431144, "coord_y": 36.7779892, "hashtag": "솔향기캠핑장" }, "geometry": { "type": "Point", "coordinates": [ 126.1431144, 36.7779892 ] } },
{ "type": "Feature", "properties": { "num": 281, "name": "신난다 글램핑", "addr": "경상북도 청도군 각북면 금천리 482", "call_num": "010-8606-0039", "coord_x": 128.5729634, "coord_y": 35.7221977, "hashtag": "신난다글램핑" }, "geometry": { "type": "Point", "coordinates": [ 128.57296340000002, 35.7221977 ] } },
{ "type": "Feature", "properties": { "num": 282, "name": "김제 모악산 캠핑파크", "addr": "전북 김제시 금산면 모악로 476-31", "call_num": "063-540-4199", "coord_x": 127.0419043, "coord_y": 35.716034, "hashtag": "김제모악산캠핑파크" }, "geometry": { "type": "Point", "coordinates": [ 127.041904300000013, 35.716034 ] } },
{ "type": "Feature", "properties": { "num": 283, "name": "강촌버즈글램핑", "addr": "강원 춘천시 서면 율장길 122-28", "call_num": "033-262-1100", "coord_x": 127.5806316, "coord_y": 37.8498063, "hashtag": "강촌버즈글램핑" }, "geometry": { "type": "Point", "coordinates": [ 127.5806316, 37.8498063 ] } },
{ "type": "Feature", "properties": { "num": 284, "name": "소풍캠핑장", "addr": "경기 용인시 처인구 이동읍 경기동로785번길 30", "call_num": "010-4707-0331", "coord_x": 127.2056205, "coord_y": 37.1336407, "hashtag": "소풍캠핑장" }, "geometry": { "type": "Point", "coordinates": [ 127.2056205, 37.1336407 ] } },
{ "type": "Feature", "properties": { "num": 285, "name": "블루마린 캠핑장", "addr": "경기 여주시 능서면 중부대로 2545-74", "call_num": "070-4633-2899", "coord_x": 127.5813962, "coord_y": 37.3035056, "hashtag": "블루마린캠핑장" }, "geometry": { "type": "Point", "coordinates": [ 127.5813962, 37.3035056 ] } },
{ "type": "Feature", "properties": { "num": 286, "name": "가평설악 하늘계곡 캠핑장", "addr": "경기 가평군 설악면 봉미산안길 190-27", "call_num": "031-584-6423", "coord_x": 127.5391017, "coord_y": 37.6162787, "hashtag": "가평설악하늘계곡캠핑장" }, "geometry": { "type": "Point", "coordinates": [ 127.5391017, 37.6162787 ] } },
{ "type": "Feature", "properties": { "num": 287, "name": "푸른산페어웨이글램핑", "addr": "경기도 포천시 영북면 산정리 511 외 7필지", "call_num": "070-4224-2341", "coord_x": 127.3108621, "coord_y": 38.0691459, "hashtag": "푸른산페어웨이글램핑" }, "geometry": { "type": "Point", "coordinates": [ 127.3108621, 38.0691459 ] } },
{ "type": "Feature", "properties": { "num": 288, "name": "티앤글램핑", "addr": "경기 가평군 북면 꽃넘이길 55", "call_num": "010-3200-2087", "coord_x": 127.5258699, "coord_y": 37.8967245, "hashtag": "티앤글램핑" }, "geometry": { "type": "Point", "coordinates": [ 127.5258699, 37.8967245 ] } },
{ "type": "Feature", "properties": { "num": 289, "name": "별빛야영장", "addr": "경상북도 영천시 화북면 별빛로 681-32", "call_num": "054-330-6400", "coord_x": 128.996493, "coord_y": 36.1402922, "hashtag": "별빛야영장" }, "geometry": { "type": "Point", "coordinates": [ 128.996493, 36.1402922 ] } },
{ "type": "Feature", "properties": { "num": 290, "name": "줄포만갯벌생태공원 캠핑장", "addr": "전북 부안군 줄포면 생태공원로 38", "call_num": "063-580-3171", "coord_x": 126.6741767, "coord_y": 35.5830706, "hashtag": "줄포만갯벌생태공원캠핑장" }, "geometry": { "type": "Point", "coordinates": [ 126.6741767, 35.5830706 ] } },
{ "type": "Feature", "properties": { "num": 291, "name": "캠핑엔비치", "addr": "강원도 고성군 토성면 중앙로 646 ", "call_num": "033-631-7601", "coord_x": 128.5723909, "coord_y": 38.2410455, "hashtag": "캠핑엔비치" }, "geometry": { "type": "Point", "coordinates": [ 128.572390899999988, 38.2410455 ] } },
{ "type": "Feature", "properties": { "num": 292, "name": "홀스킹덤 글램핑", "addr": "경기도 포천시 내촌면 소리개길 108-13", "call_num": "031-534-3090", "coord_x": 127.244691, "coord_y": 37.778308, "hashtag": "홀스킹덤글램핑" }, "geometry": { "type": "Point", "coordinates": [ 127.244691, 37.778308 ] } },
{ "type": "Feature", "properties": { "num": 293, "name": "파인 글램핑", "addr": "경기 여주시 가남읍 경충대로 1483-25", "call_num": "031-883-7103", "coord_x": 127.5317816, "coord_y": 37.2143767, "hashtag": "파인글램핑" }, "geometry": { "type": "Point", "coordinates": [ 127.531781599999988, 37.2143767 ] } },
{ "type": "Feature", "properties": { "num": 294, "name": "파계 오토캠핑장", "addr": "대구광역시 동구 파계로 707-14 ", "call_num": "053-982-0005", "coord_x": 128.6371694, "coord_y": 35.9930818, "hashtag": "파계오토캠핑장" }, "geometry": { "type": "Point", "coordinates": [ 128.6371694, 35.9930818 ] } },
{ "type": "Feature", "properties": { "num": 295, "name": "캠프파이브", "addr": "경상북도 경주시 하동 ", "call_num": null, "coord_x": 129.2984967, "coord_y": 35.8018288, "hashtag": "캠프파이브" }, "geometry": { "type": "Point", "coordinates": [ 129.298496699999987, 35.8018288 ] } },
{ "type": "Feature", "properties": { "num": 296, "name": "은빛물결캠핑장", "addr": "경기도 가평군 하면 대보리 506-1", "call_num": "010-8003-8145", "coord_x": 127.3659137, "coord_y": 37.8031457, "hashtag": "은빛물결캠핑장" }, "geometry": { "type": "Point", "coordinates": [ 127.3659137, 37.8031457 ] } },
{ "type": "Feature", "properties": { "num": 297, "name": "유명산글램핑", "addr": "경기도 가평군 설악면 가일리 234", "call_num": "010-3297-5054", "coord_x": 127.4871615, "coord_y": 37.5930897, "hashtag": "유명산글램핑" }, "geometry": { "type": "Point", "coordinates": [ 127.4871615, 37.5930897 ] } },
{ "type": "Feature", "properties": { "num": 298, "name": "오름새", "addr": "경기도 여주시 산북면 송현길 111-31", "call_num": "031-885-2820", "coord_x": 127.4552162, "coord_y": 37.3808325, "hashtag": "오름새" }, "geometry": { "type": "Point", "coordinates": [ 127.4552162, 37.3808325 ] } },
{ "type": "Feature", "properties": { "num": 299, "name": "더엠캠프", "addr": "경기도 가평군 설악면 천안리 714-1번지 외 8필지", "call_num": null, "coord_x": 127.475518, "coord_y": 37.632977, "hashtag": "더엠캠프" }, "geometry": { "type": "Point", "coordinates": [ 127.475518, 37.632977 ] } },
{ "type": "Feature", "properties": { "num": 300, "name": "백련 리조트", "addr": "전남 무안군 일로읍 백련로 527", "call_num": "061-287-5575", "coord_x": 126.5287302, "coord_y": 34.8651592, "hashtag": "백련리조트" }, "geometry": { "type": "Point", "coordinates": [ 126.528730200000012, 34.8651592 ] } },
{ "type": "Feature", "properties": { "num": 301, "name": "밀양아리랑 오토캠핑장", "addr": "경상남도 밀양시 하남읍 명례리 1046-2", "call_num": "055-359-4636", "coord_x": 128.7593248, "coord_y": 35.3545101, "hashtag": "밀양아리랑오토캠핑장" }, "geometry": { "type": "Point", "coordinates": [ 128.7593248, 35.3545101 ] } },
{ "type": "Feature", "properties": { "num": 302, "name": "제이스글램핑", "addr": "부산광역시 기장군 일광면 화전리 ", "call_num": "051-714-0838", "coord_x": 129.2340542, "coord_y": 35.2773351, "hashtag": "제이스글램핑" }, "geometry": { "type": "Point", "coordinates": [ 129.2340542, 35.2773351 ] } },
{ "type": "Feature", "properties": { "num": 303, "name": "메이 더 카라반", "addr": "제주특별자치도 제주시 구좌읍 일주동로 1626 ", "call_num": "064-766-8888", "coord_x": 126.7059174, "coord_y": 33.552507, "hashtag": "메이더카라반" }, "geometry": { "type": "Point", "coordinates": [ 126.705917400000018, 33.552507 ] } },
{ "type": "Feature", "properties": { "num": 304, "name": "도학 오토캠핑장", "addr": "대구광역시 동구 도학동 110", "call_num": "053-981-8036", "coord_x": 128.7036497, "coord_y": 35.9817252, "hashtag": "도학오토캠핑장" }, "geometry": { "type": "Point", "coordinates": [ 128.7036497, 35.9817252 ] } },
{ "type": "Feature", "properties": { "num": 305, "name": "대관령자연휴양림", "addr": "강원도 강릉시 성산면 삼포암길 133 ", "call_num": "033-641-9990", "coord_x": 128.7871994, "coord_y": 37.7102513, "hashtag": "대관령자연휴양림" }, "geometry": { "type": "Point", "coordinates": [ 128.7871994, 37.7102513 ] } },
{ "type": "Feature", "properties": { "num": 306, "name": "스톤힐", "addr": "경남 거제시 수양1길 92-5", "call_num": "055-632-7577", "coord_x": 128.6553113, "coord_y": 34.8924728, "hashtag": "스톤힐" }, "geometry": { "type": "Point", "coordinates": [ 128.6553113, 34.8924728 ] } },
{ "type": "Feature", "properties": { "num": 307, "name": "MK골드캠프", "addr": "경기도 용인시 기흥구 고매동 기흥단지로 398 ", "call_num": "031-286-9111", "coord_x": 127.1369537, "coord_y": 37.2169109, "hashtag": "MK골드캠프" }, "geometry": { "type": "Point", "coordinates": [ 127.1369537, 37.2169109 ] } },
{ "type": "Feature", "properties": { "num": 308, "name": "각흘계곡 캠핑장", "addr": "경기도 포천시 이동면 금강로 6439", "call_num": null, "coord_x": 127.393008, "coord_y": 38.101442, "hashtag": "각흘계곡캠핑장" }, "geometry": { "type": "Point", "coordinates": [ 127.393008, 38.101442 ] } },
{ "type": "Feature", "properties": { "num": 309, "name": "가평뜰캠핑장", "addr": "경기 가평군 설악면 뇌암길 49", "call_num": null, "coord_x": 127.4902145, "coord_y": 37.631197, "hashtag": "가평뜰캠핑장" }, "geometry": { "type": "Point", "coordinates": [ 127.4902145, 37.631197 ] } },
{ "type": "Feature", "properties": { "num": 310, "name": "A&RS캡틴카라반 글램핑", "addr": "경기도 가평군 상면 임초리 ", "call_num": "031-585-8838", "coord_x": 127.3740378, "coord_y": 37.7811021, "hashtag": "A앤RS캡틴카라반글램핑" }, "geometry": { "type": "Point", "coordinates": [ 127.3740378, 37.7811021 ] } },
{ "type": "Feature", "properties": { "num": 311, "name": "메이플트리글램핑", "addr": "경기 가평군 상면 수목원로 181-28", "call_num": null, "coord_x": 127.3645131, "coord_y": 37.7622269, "hashtag": "메이플트리글램핑" }, "geometry": { "type": "Point", "coordinates": [ 127.364513100000011, 37.7622269 ] } },
{ "type": "Feature", "properties": { "num": 312, "name": "바람흔적 글램핑 앤 카라반", "addr": "경남 합천군 가회면 대기1길 15-9", "call_num": "010-2045-3115", "coord_x": 128.0049666, "coord_y": 35.4596918, "hashtag": "바람흔적글램핑앤카라반" }, "geometry": { "type": "Point", "coordinates": [ 128.004966599999989, 35.4596918 ] } },
{ "type": "Feature", "properties": { "num": 313, "name": "대명캠프 팜랜드", "addr": "충청남도 보령시 청소면 신송리 455-4", "call_num": "041-934-8578", "coord_x": 126.5691531, "coord_y": 36.4670026, "hashtag": "대명캠프팜랜드" }, "geometry": { "type": "Point", "coordinates": [ 126.5691531, 36.4670026 ] } },
{ "type": "Feature", "properties": { "num": 314, "name": "그린콩 캠핑장", "addr": "경기도 가평군 북면 소법리 627-54 ", "call_num": null, "coord_x": 127.5539975, "coord_y": 37.8972873, "hashtag": "그린콩캠핑장" }, "geometry": { "type": "Point", "coordinates": [ 127.5539975, 37.8972873 ] } },
{ "type": "Feature", "properties": { "num": 315, "name": "고창오토캠핑리조트", "addr": "전라북도 고창군 부안면 복분자로 531 ", "call_num": "063-562-3318", "coord_x": 126.6446676, "coord_y": 35.5082068, "hashtag": "고창오토캠핑리조트" }, "geometry": { "type": "Point", "coordinates": [ 126.6446676, 35.5082068 ] } },
{ "type": "Feature", "properties": { "num": 316, "name": "씨카라반", "addr": "강원 강릉시 사천면 해안로 904-14", "call_num": "033-648-6699", "coord_x": 128.8763536, "coord_y": 37.832399, "hashtag": "씨카라반" }, "geometry": { "type": "Point", "coordinates": [ 128.876353599999987, 37.832399 ] } },
{ "type": "Feature", "properties": { "num": 317, "name": "황매산 국민여가 캠핑장", "addr": "경상남도 합천군 가회면 둔내리 ", "call_num": "055-932-5880", "coord_x": 128.0036224, "coord_y": 35.4819189, "hashtag": "황매산국민여가캠핑장" }, "geometry": { "type": "Point", "coordinates": [ 128.003622400000012, 35.4819189 ] } },
{ "type": "Feature", "properties": { "num": 318, "name": "해바라기캠핑장", "addr": "경상북도 문경시 농암면 청화로 695 ", "call_num": "054-571-3500", "coord_x": 127.9749734, "coord_y": 36.5710734, "hashtag": "해바라기캠핑장" }, "geometry": { "type": "Point", "coordinates": [ 127.97497340000001, 36.5710734 ] } },
{ "type": "Feature", "properties": { "num": 319, "name": "대풍바위 오토캠핑장", "addr": "경상남도 통영시 욕지면 동항리 ", "call_num": "010-4100-9922", "coord_x": 128.2601851, "coord_y": 34.6445536, "hashtag": "대풍바위오토캠핑장" }, "geometry": { "type": "Point", "coordinates": [ 128.2601851, 34.6445536 ] } },
{ "type": "Feature", "properties": { "num": 320, "name": "합천 아마존 오토캠핑장", "addr": "경상남도 합천군 대병면 회양리 ", "call_num": "055-931-9845", "coord_x": 128.0148684, "coord_y": 35.508576, "hashtag": "합천아마존오토캠핑장" }, "geometry": { "type": "Point", "coordinates": [ 128.014868400000012, 35.508576 ] } },
{ "type": "Feature", "properties": { "num": 321, "name": "동의보감촌 숲속글램핑", "addr": "경남 산청군 금서면 동의보감로555번길 167-23", "call_num": "055-972-9778", "coord_x": 127.8236808, "coord_y": 35.4340358, "hashtag": "동의보감촌숲속글램핑" }, "geometry": { "type": "Point", "coordinates": [ 127.8236808, 35.4340358 ] } },
{ "type": "Feature", "properties": { "num": 322, "name": "하늘숲글램핑 파크", "addr": "경기도 가평군 북면 소법리 ", "call_num": "010-2889-8238", "coord_x": 127.5620894, "coord_y": 37.9045226, "hashtag": "하늘숲글램핑파크" }, "geometry": { "type": "Point", "coordinates": [ 127.5620894, 37.9045226 ] } },
{ "type": "Feature", "properties": { "num": 323, "name": "핏들캠핑장", "addr": "충청북도 영동군 상촌면 물한리 ", "call_num": "043-745-3542", "coord_x": 127.8822534, "coord_y": 36.0818212, "hashtag": "핏들캠핑장" }, "geometry": { "type": "Point", "coordinates": [ 127.8822534, 36.0818212 ] } },
{ "type": "Feature", "properties": { "num": 324, "name": "피노키오 자연휴양림 야영장", "addr": "강원도 원주시 신림면 황둔리 ", "call_num": "033-0764-3007", "coord_x": 128.1654343, "coord_y": 37.258394, "hashtag": "피노키오자연휴양림야영장" }, "geometry": { "type": "Point", "coordinates": [ 128.165434299999987, 37.258394 ] } },
{ "type": "Feature", "properties": { "num": 325, "name": "사프리카 더 캠프", "addr": "제주특별자치도 제주시 우도면 ", "call_num": "0507-1319-2124", "coord_x": 126.9596985, "coord_y": 33.4990875, "hashtag": "사프리카더캠프" }, "geometry": { "type": "Point", "coordinates": [ 126.959698500000016, 33.4990875 ] } },
{ "type": "Feature", "properties": { "num": 326, "name": "포레스트12", "addr": "대구광역시 달성군 가창면 냉천리 ", "call_num": "053-608-5000", "coord_x": 128.6361185, "coord_y": 35.7880124, "hashtag": "포레스트12" }, "geometry": { "type": "Point", "coordinates": [ 128.6361185, 35.7880124 ] } },
{ "type": "Feature", "properties": { "num": 327, "name": "포레스트 카라반", "addr": "충남 천안시 동남구 안서동 44-10", "call_num": "041-571-4148", "coord_x": 127.1950008, "coord_y": 36.8476556, "hashtag": "포레스트카라반" }, "geometry": { "type": "Point", "coordinates": [ 127.195000799999988, 36.8476556 ] } },
{ "type": "Feature", "properties": { "num": 328, "name": "사계절 글램핑", "addr": "경기도 가평군 가평읍 금대리 ", "call_num": null, "coord_x": 127.5254273, "coord_y": 37.7468279, "hashtag": "사계절글램핑" }, "geometry": { "type": "Point", "coordinates": [ 127.5254273, 37.7468279 ] } },
{ "type": "Feature", "properties": { "num": 329, "name": "페리아오토캠핑장", "addr": "경상북도 울진군 울진읍 온양리 ", "call_num": null, "coord_x": 129.4101322, "coord_y": 37.0219587, "hashtag": "페리아오토캠핑장" }, "geometry": { "type": "Point", "coordinates": [ 129.4101322, 37.0219587 ] } },
{ "type": "Feature", "properties": { "num": 330, "name": "패밀리 오토캠핑장", "addr": "충청북도 제천시 덕산면 월악리 ", "call_num": "043-651-2866", "coord_x": 128.1375076, "coord_y": 36.8922136, "hashtag": "패밀리오토캠핑장" }, "geometry": { "type": "Point", "coordinates": [ 128.1375076, 36.8922136 ] } },
{ "type": "Feature", "properties": { "num": 331, "name": "터닝포인트카라반&캠핑", "addr": "강원도 철원군 서면 자등리 ", "call_num": "033-458-", "coord_x": 127.4186843, "coord_y": 38.205315, "hashtag": "터닝포인트카라반앤캠핑" }, "geometry": { "type": "Point", "coordinates": [ 127.418684299999981, 38.205315 ] } },
{ "type": "Feature", "properties": { "num": 332, "name": "성주오토캠핑장", "addr": "경상북도 성주군 수륜면 신정리 ", "call_num": "010-6280-2821", "coord_x": 128.1978072, "coord_y": 35.854207, "hashtag": "성주오토캠핑장" }, "geometry": { "type": "Point", "coordinates": [ 128.1978072, 35.854207 ] } },
{ "type": "Feature", "properties": { "num": 333, "name": "힐링캠프글램핑", "addr": "인천 중구 선녀바위로 70", "call_num": null, "coord_x": 126.379427, "coord_y": 37.439587, "hashtag": "힐링캠프글램핑" }, "geometry": { "type": "Point", "coordinates": [ 126.379427, 37.439587 ] } },
{ "type": "Feature", "properties": { "num": 334, "name": "칠갑산도림휴게소캠핑장", "addr": "충청남도 청양군 장평면 적곡리 ", "call_num": "041-943-9848", "coord_x": 126.898002, "coord_y": 36.3926819, "hashtag": "칠갑산도림휴게소캠핑장" }, "geometry": { "type": "Point", "coordinates": [ 126.898002, 36.3926819 ] } },
{ "type": "Feature", "properties": { "num": 335, "name": "금강자연휴양림", "addr": "세종특별자치시 금남면 산림박물관길 110 ", "call_num": "041-635-7400", "coord_x": 127.2330595, "coord_y": 36.434399, "hashtag": "금강자연휴양림" }, "geometry": { "type": "Point", "coordinates": [ 127.2330595, 36.434399 ] } },
{ "type": "Feature", "properties": { "num": 336, "name": "충주호캠핑월드", "addr": "충청북도 충주시 동량면 호반로 696-1 ", "call_num": "070-8266-7781", "coord_x": 128.0418349, "coord_y": 37.0272913, "hashtag": "충주호캠핑월드" }, "geometry": { "type": "Point", "coordinates": [ 128.041834900000026, 37.0272913 ] } },
{ "type": "Feature", "properties": { "num": 337, "name": "춘천 박사마을 어린이 글램핑장", "addr": "강원 춘천시 서면 박사로 770", "call_num": "033-240-1791", "coord_x": 127.6918678, "coord_y": 37.8930335, "hashtag": "춘천박사마을어린이글램핑장" }, "geometry": { "type": "Point", "coordinates": [ 127.691867800000011, 37.8930335 ] } },
{ "type": "Feature", "properties": { "num": 338, "name": "트리독스 애견전용캠핑장", "addr": "경상북도 고령군 쌍림면 용당길 42-56 ", "call_num": "054-954-1611", "coord_x": 128.2300669, "coord_y": 35.6504808, "hashtag": "트리독스애견전용캠핑장" }, "geometry": { "type": "Point", "coordinates": [ 128.2300669, 35.6504808 ] } },
{ "type": "Feature", "properties": { "num": 339, "name": "청도프로방스 카라반캠핑카펜션", "addr": "경상북도 청도군 화양읍 이슬미로 297-41", "call_num": null, "coord_x": 128.7153318, "coord_y": 35.6876454, "hashtag": "청도프로방스카라반캠핑카펜션" }, "geometry": { "type": "Point", "coordinates": [ 128.7153318, 35.6876454 ] } },
{ "type": "Feature", "properties": { "num": 340, "name": "대둔산자연휴양림캠핑장", "addr": "충청남도 금산군 진산면 대둔산로 6 ", "call_num": "041-753-4242", "coord_x": 127.3451335, "coord_y": 36.1232644, "hashtag": "대둔산자연휴양림캠핑장" }, "geometry": { "type": "Point", "coordinates": [ 127.3451335, 36.1232644 ] } },
{ "type": "Feature", "properties": { "num": 341, "name": "주식회사 제이에스글로벌", "addr": "충청남도 예산군 덕산면 사동리 ", "call_num": "041-337-7401", "coord_x": 126.6565086, "coord_y": 36.6939881, "hashtag": "주식회사제이에스글로벌" }, "geometry": { "type": "Point", "coordinates": [ 126.6565086, 36.6939881 ] } },
{ "type": "Feature", "properties": { "num": 342, "name": "신북온천글램핑장", "addr": "경기도 포천시 신북면 덕둔리 635-3", "call_num": "010-9767-0651", "coord_x": 127.1025396, "coord_y": 37.9735743, "hashtag": "신북온천글램핑장" }, "geometry": { "type": "Point", "coordinates": [ 127.1025396, 37.9735743 ] } },
{ "type": "Feature", "properties": { "num": 343, "name": "포천준글램핑", "addr": "경기 포천시 이동면 금강로 6217-16", "call_num": "031-533-5966", "coord_x": 127.3901528, "coord_y": 38.0837438, "hashtag": "포천준글램핑" }, "geometry": { "type": "Point", "coordinates": [ 127.3901528, 38.0837438 ] } },
{ "type": "Feature", "properties": { "num": 344, "name": "제주도캠핑카라반", "addr": "제주특별자치도 제주시 조천읍 함덕리 ", "call_num": "064-782-8202", "coord_x": 126.6751229, "coord_y": 33.5424018, "hashtag": "제주도캠핑카라반" }, "geometry": { "type": "Point", "coordinates": [ 126.6751229, 33.5424018 ] } },
{ "type": "Feature", "properties": { "num": 345, "name": "정선국민여가캠핑장", "addr": "강원도 정선군 정선읍 회동리 ", "call_num": "033-560-3454", "coord_x": 128.5856789, "coord_y": 37.4112323, "hashtag": "정선국민여가캠핑장" }, "geometry": { "type": "Point", "coordinates": [ 128.5856789, 37.4112323 ] } },
{ "type": "Feature", "properties": { "num": 346, "name": "장남동산농원", "addr": "경기도 연천군 장남면 원당리 ", "call_num": null, "coord_x": 126.8909971, "coord_y": 37.9703631, "hashtag": "장남동산농원" }, "geometry": { "type": "Point", "coordinates": [ 126.8909971, 37.9703631 ] } },
{ "type": "Feature", "properties": { "num": 347, "name": "자유인의 카라반", "addr": "강원도 춘천시 남산면 백양리 ", "call_num": "033-263-2989", "coord_x": 127.5746284, "coord_y": 37.8042877, "hashtag": "자유인의카라반" }, "geometry": { "type": "Point", "coordinates": [ 127.5746284, 37.8042877 ] } },
{ "type": "Feature", "properties": { "num": 348, "name": "월악파인오토캠핑장", "addr": "충북 제천시 덕산면 월악산로 721-12", "call_num": null, "coord_x": 128.1504104, "coord_y": 36.8731559, "hashtag": "월악파인오토캠핑장" }, "geometry": { "type": "Point", "coordinates": [ 128.1504104, 36.8731559 ] } },
{ "type": "Feature", "properties": { "num": 349, "name": "용인 자연숲 캠핑장", "addr": "경기도 용인시 처인구 원삼면 좌항리 ", "call_num": "010-9424-7978", "coord_x": 127.309936, "coord_y": 37.2076471, "hashtag": "용인자연숲캠핑장" }, "geometry": { "type": "Point", "coordinates": [ 127.309936, 37.2076471 ] } },
{ "type": "Feature", "properties": { "num": 350, "name": "우리꽃 캠핑장", "addr": "경기도 용인시 기흥구 보정동 ", "call_num": null, "coord_x": 127.0936247, "coord_y": 37.2958223, "hashtag": "우리꽃캠핑장" }, "geometry": { "type": "Point", "coordinates": [ 127.0936247, 37.2958223 ] } },
{ "type": "Feature", "properties": { "num": 351, "name": "요카카 관광농원", "addr": "충청북도 충주시 금가면 강변길 11-37 ", "call_num": null, "coord_x": 127.8956385, "coord_y": 36.9954153, "hashtag": "요카카관광농원" }, "geometry": { "type": "Point", "coordinates": [ 127.8956385, 36.9954153 ] } },
{ "type": "Feature", "properties": { "num": 352, "name": "와이와이글램핑", "addr": "경기 가평군 가평읍 북한강변로 516", "call_num": null, "coord_x": 127.5361162, "coord_y": 37.7722779, "hashtag": "와이와이글램핑" }, "geometry": { "type": "Point", "coordinates": [ 127.5361162, 37.7722779 ] } },
{ "type": "Feature", "properties": { "num": 353, "name": "옥계오토캠핑장", "addr": "경남 거제시 하청면 칠천로 265-17", "call_num": "010-3859-6837", "coord_x": 128.6439094, "coord_y": 34.9814589, "hashtag": "옥계오토캠핑장" }, "geometry": { "type": "Point", "coordinates": [ 128.643909400000013, 34.9814589 ] } },
{ "type": "Feature", "properties": { "num": 354, "name": "예당관광지 국민여가캠핑장", "addr": "충청남도 예산군 응봉면 예당관광로 123 ", "call_num": "041-339-8299", "coord_x": 126.7999875, "coord_y": 36.6374233, "hashtag": "예당관광지국민여가캠핑장" }, "geometry": { "type": "Point", "coordinates": [ 126.7999875, 36.6374233 ] } },
{ "type": "Feature", "properties": { "num": 355, "name": "에코오토캠핑장", "addr": "전라북도 완주군 동상면 대아수목로 144-1 ", "call_num": null, "coord_x": 127.3031416, "coord_y": 35.9803277, "hashtag": "에코오토캠핑장" }, "geometry": { "type": "Point", "coordinates": [ 127.3031416, 35.9803277 ] } },